stop_id,stop_code,stop_name,stop_desc,stop_lat,stop_lon,zone_id,stop_url,location_type,parent_station,wheelchair_boarding
BRU1MARL,BRU1MARL,Hôtel de Ville,235 Rue Charles Marlard 62700 Bruay-la-Buissière,50.48318459262989,2.54700936933999,,,0,,0
CAL2BELF,CAL2BELF,Belfort,9 Rue Gryson 62260 Auchel,50.49737414586748,2.480750041615497,,,0,,0
CAL1BELF,CAL1BELF,Belfort,9 Rue Gryson 62260 Auchel,50.49739217092944,2.480679765890028,,,0,,0
HAI2EGLI,HAI2EGLI,Mairie,28 Rue du 1er Mai 62940 Haillicourt,50.474827015751394,2.5835142051736533,,,0,,0
BAR1FETE,BAR1FETE,Mairie,13 Rue du Docteur Capiaux 62620 Barlin,50.45798637046115,2.6171763423492345,,,0,,1
PVE1GARE,PVE1GARE,Gare,16 Rue Cesar Luccarini 62880 Pont-à-Vendin,50.47109629401694,2.875851236095487,,,0,,1
LEN1SHOU,LEN1SHOU,Salle Houdart,4 Allee Suzanne Bachelard 62300 Lens,50.44364761658194,2.810979811007277,,,0,,0
AUC1EVR2,AUC1EVR2,Evrard,66 Rue Florent Evrard 62260 Auchel,50.504332038879305,2.4764653300738098,,,0,,1
CAR2BH26,CAR2BH26,Mairie,1 Rue Willerval 62220 Carvin,50.490323126362064,2.959681353765524,,,0,,1
AVI1CHVE,AVI1CHVE,Taverne,38 Av Theo Salingue Pere et Fils 62210 Avion,50.41106207508383,2.8547769479444667,,,0,,1
ROU1CHLA,ROU1CHLA,Laly,379 Boulevard Fosse 2 62320 Rouvroy,50.40009215770118,2.8949264296039003,,,0,,1
LIE2OCTR,LIE2OCTR,Octroi,158 ter Rue Jules Ferry 62800 Liévin,50.433668666233096,2.7463781200239943,,,0,,1
LAP1VAMA,LAP1VAMA,Gare,416 Rue Victor Hugo 62122 Lapugnoy,50.50670323471024,2.516087629730356,,,0,,0
LEN2CHL1,LEN2CHL1,Hôpital,80 Route de la Bassée 62300 Lens,50.438960546867726,2.8210932405721305,,,0,,1
BET2GEND,BET2GEND,Gendarmerie,87 Rue d’Aire 62400 Béthune,50.536136346061625,2.637221447725289,,,0,,0
AVI1GAR2,AVI1GAR2,Gare,19 Place du 19 Mars 1962 62210 Avion,50.40725539676614,2.83353658879607,,,0,,0
LEN2FOS4,LEN2FOS4,Fosse 4,1 Rue Notre Dame de Lorette 62300 Lens,50.42543523656418,2.819740947233686,,,0,,1
COU1LAMA,COU1LAMA,Lamartine,39 Rue des Fusillés 62710 Courrières,50.457537815277455,2.950940214708448,,,0,,0
FOL2MAI2,FOL2MAI2,Mairie,4 Rue Gaston Miont 62232 Fouquereuil,50.5181576053996,2.5978547461854604,,,0,,0
LEN1MOZA,LEN1MOZA,Mozart,34 Rue Wolfgang Amadeus Mozart 62300 Lens,50.42891826245548,2.80537674311378,,,0,,0
LIB1CIM1,LIB1CIM1,Cimetière,7 bis Rue Emile Basly 62820 Libercourt,50.48448326116109,3.010683131938832,,,0,,0
LIL2LEME,LIL2LEME,Le Mensecq,,50.552176508232094,2.4757816279543894,,,0,,1
LOZ2ABR2,LOZ2ABR2,Abreuvoir,2 c Rue Jean Bruyez 62540 Lozinghem,50.51893855312718,2.4977961000400533,,,0,,1
BAR1RFOC,BAR1RFOC,Rue Foch,243 Rue de Fresnicourt 62620 Barlin,50.44767145721391,2.6118073114584965,,,0,,0
LEN2JBLE,LEN2JBLE,Eugène Thomas,29 Rue de Londres 62300 Lens,50.4341685125873,2.828071053129217,,,0,,0
BET1LEGI,BET1LEGI,Legillon,445 Boulevard Raymond Poincare 62400 Béthune,50.52471706016147,2.6404180714041825,,,0,,0
HOU2GEND,HOU2GEND,Gendarmerie,353 Rue de la Gendarmerie 62150 Houdain,50.4484237596274,2.5436040842889804,,,0,,0
BRU2CVER,BRU2CVER,Cap Vert,376 Rue Jules Guesde 62700 Bruay-la-Buissière,50.47282444416711,2.555963554684052,,,0,,0
BET2BARB,BET2BARB,Barbusse,25 Rue Henri Barbusse 62400 Béthune,50.51675618478071,2.641734798795804,,,0,,0
CAR1ZOLA,CAR1ZOLA,Zola,Place Jean Jaurès 62220 Carvin,50.49342105936969,2.9573850610110624,,,0,,0
AVI2GEND,AVI2GEND,Gendarmerie,21 Rue Jean Jacques Rousseau 62210 Avion,50.4054548270884,2.82832401046251,,,0,,0
DIV2LIMA,DIV2LIMA,Lima,118 Rue des Frères Caron 62460 Divion,50.47109684964426,2.5205295816054143,,,0,,1
LEN1CHL1,LEN1CHL1,Hôpital,99 Route de la Bassée 62300 Lens,50.43934756347011,2.82078788328055,,,0,,1
CAR2POST,CAR2POST,Poste,119 Rue Francis de Pressence 62220 Carvin,50.4887093623553,2.954092199618994,,,0,,0
BUL1CLIN,BUL1CLIN,Lamendin,81 Boulevard Arthur Lamendin 62670 Mazingarbe,50.46065993225016,2.7176161351693686,,,0,,0
ANZ2CALV,ANZ2CALV,Morinie,914 Avenue de la Morinie 62232 Annezin,50.54045089142937,2.614469687660172,,,0,,1
BET1GAR3,BET1GAR3,Gare - Quai 3,309 Avenue de Lens 62400 Béthune,50.52094375741459,2.6425764277286854,,,0,,1
SAI1ARLE,SAI1ARLE,Arles,14 Rue d’Arles 62114 Sains-en-Gohelle,50.44233991649873,2.686904154441687,,,0,,0
CAR2PJJ4,CAR2PJJ4,Jean Jaurès,Place Jean Jaurès 62220 Carvin,50.49324092381181,2.9575234801628607,,,0,,0
LIE2LOUV,LIE2LOUV,Louvre-Lens,105 Rue du 14 Juillet 62800 Liévin,50.42740322767605,2.793072303003416,,,0,,0
BIL1SLAN,BIL1SLAN,Fosse 10,5 Avenue du 1er Mai 62420 Billy-Montigny,50.41239774257597,2.907813196218697,,,0,,0
MER1RSUL,MER1RSUL,Sulliger,47 Rue Jules Mousseron 62680 Méricourt,50.40328202433733,2.883940885859639,,,0,,1
CUI2MRET,CUI2MRET,Rés. Du Château,58 Rue Anatole France 62149 Cuinchy,50.516241647903634,2.747980859286732,,,0,,0
BEG1CENT,BEG1CENT,Rue de la Place,10 Rue de la Place 62150 Beugin,50.4428221588042,2.516843548218976,,,0,,1
BUL2LALO,BUL2LALO,Alouettes,97 bis Rue Edmond Debeaumont 62160 Bully-les-Mines,50.43832480362592,2.735612330985753,,,0,,1
FRE1P8MA,FRE1P8MA,Mairie,56 Rue du Bourg 62150 Fresnicourt-le-Dolmen,50.41825947904612,2.59962540422612,,,0,,0
HEN1HDAR,HEN1HDAR,Robiaud,239 Rue Philibert Robiaud 62110 Hénin-Beaumont,50.41759246355348,2.9632738021652907,,,0,,0
LIL2GARE,LIL2GARE,Gare,,50.56118163609933,2.4772571290320946,,,0,,0
AUM2MARA,AUM2MARA,Centre Cial.,1 Avenue Nelson Mandela 62138 Auchy-les-Mines,50.5201704313634,2.7940849437402644,,,0,,1
HEN1ETHO,HEN1ETHO,Eugène Thomas,981 Boulevard Eugène Thomas 62110 Hénin-Beaumont,50.39314583788772,2.969355910375332,,,0,,0
HEN1GAR1,HEN1GAR1,Gare,27 Rue Parmentier 62110 Hénin-Beaumont,50.41757347953731,2.952811142764725,,,0,,1
BRU4BH04,BRU4BH04,Evrard,407 Rue Florent Evrard 62700 Bruay-la-Buissière,50.4886360780998,2.5489728701814065,,,0,,1
BRU4BH03,BRU4BH03,Les Tombelles,286 Rue F et Telesphore Caudron 62700 Bruay-la-Buissière,50.483756526936986,2.5483335578518207,,,0,,1
RUI1VILL,RUI1VILL,Village,"Rue de Béthune, Ruitz, Hauts-de-France",50.47021396634732,2.593036867445715,,,0,,1
BRU3BH04,BRU3BH04,Evrard,407 Rue Florent Evrard 62700 Bruay-la-Buissière,50.48869868652486,2.5490856389211016,,,0,,1
BRU3BH03,BRU3BH03,Les Tombelles,286 Rue F et Telesphore Caudron 62700 Bruay-la-Buissière,50.48360379038022,2.548459469625292,,,0,,1
RUI2VILL,RUI2VILL,Village,"Rue de Béthune, Ruitz, Hauts-de-France",50.47016890248575,2.593135042838392,,,0,,1
FOQ1BH01,FOQ1BH01,Actipolis,2 Zone Artisanale Actipolis 62232 Fouquières-lès-Béthune,50.515707785754174,2.622451599684074,,,0,,1
FOQ2BH01,FOQ2BH01,Actipolis,2 Zone Artisanale Actipolis 62232 Fouquières-lès-Béthune,50.51565486854664,2.6220573201523574,,,0,,1
LLS2CLRC,LLS2CLRC,Collège Cassin,,50.55963687592879,2.470760571981324,,,0,,1
LBA3GARE,LBA3GARE,Gare - Quai 3,"37 Avenue Jean Baptiste Lebas, Bassée, Hauts-de-France",50.52807123296369,2.8044734406166336,,,0,,1
BRU1CIME,BRU1CIME,Cimetière,5000 f Rue de Bellevue 62700 Bruay-la-Buissière,50.48679125223739,2.524749438206749,,,0,,0
LIB4SDRE,LIB4SDRE,Six-Drèves Q4,22 Rue Alfred Ringot 62820 Libercourt,50.47591048913744,3.011481924754383,,,0,,0
LIB3SDRE,LIB3SDRE,Six-Drèves Q3,23 Rue Alfred Ringot 62820 Libercourt,50.47590313338259,3.011186567338447,,,0,,0
GAU2EGLI,GAU2EGLI,Eglise,40 Route de Caucourt 62150 Gauchin-Légal,50.41527540190404,2.580301361535719,,,0,,0
AVI1CSEC,AVI1CSEC,Thumerelle,18 bis Avenue Achille Thumerelle 62210 Avion,50.40921571823715,2.821213902280008,,,0,,0
LIB2CIM2,LIB2CIM2,Cimetière,9 Rue du 19 Mars 1962 62820 Libercourt,50.48432215955874,3.010610657076636,,,0,,0
LIE1STCV,LIE1STCV,Lycée H. Darras,6 Chemin du Marquage 62800 Liévin,50.41180185432767,2.7701270058029914,,,0,,1
LEN2MOZA,LEN2MOZA,Mozart,30 Rue Wolfgang Amadeus Mozart 62300 Lens,50.42893465666267,2.8057842447383226,,,0,,0
OIG2BASL,OIG2BASL,Basly,53 Rue Emile Basly 62590 Oignies,50.47091301656833,3.011470987758305,,,0,,0
LIE2LISC,LIE2LISC,Salle Carpentier,2 Rue Dupuy de Lôme 62800 Liévin,50.42055870724704,2.7974621726055955,,,0,,1
LEN1PDO2,LEN1PDO2,Pont de Douai,35 Avenue de Varsovie 62300 Lens,50.428382388796514,2.836695155684904,,,0,,1
ABL1VEGL,ABL1VEGL,Vieille Eglise,13 Rue Marcel Lancino 62153 Ablain-Saint-Nazaire,50.39257253261079,2.7216624905977165,,,0,,0
BAU2MAIR,BAU2MAIR,Mairie,44 Rue Jean Jaures 59221 Bauvin,50.51524591834865,2.8962218040466,,,0,,0
ROU2CHLA,ROU2CHLA,Laly,382 Boulevard Fosse 2 62320 Rouvroy,50.40006504908246,2.894968244307776,,,0,,1
CAR2ECOL,CAR2ECOL,Apollinaire,70 Rue des Nonettes 62220 Carvin,50.47095309700724,2.939688876916337,,,0,,0
CUI1RROB,CUI1RROB,Rue Robespierre,5 Rue Robespierre 62149 Cuinchy,50.52869240114646,2.745760648070031,,,0,,0
HER1PISC,HER1PISC,Piscine,30 bis Rue Victor Hugo 62530 Hersin-Coupigny,50.448119677316434,2.6460538198755983,,,0,,0
HIN1LBOU,HIN1LBOU,Rue du Boulan,944 Rue des Fusillés 62232 Hinges,50.56625176491786,2.6336412239060016,,,0,,0
AVI1SQFO,AVI1SQFO,Square Foulon,15 Rue de la Bastille 62210 Avion,50.41091884384681,2.835131393181804,,,0,,1
ANZ2BELZ,ANZ2BELZ,Belzace,420 Rue d’Avelettes 62232 Annezin,50.552430833848376,2.632278053091714,,,0,,0
NOL2DISP,NOL2DISP,Courtaigne,705 Rue de Courtaigne 62221 Noyelles-sous-Lens,50.42465706045998,2.8835415611067625,,,0,,0
LAP1CIME,LAP1CIME,Cimetière,67 bis Rue Jules Ferry 62122 Lapugnoy,50.52057180351074,2.5507260689257247,,,0,,0
LIE1LGAR,LIE1LGAR,Garennes,2 Place Henri Dernoncourt 62800 Liévin,50.41767688455377,2.7930682823451765,,,0,,0
VEN1PDAB,VEN1PDAB,Pont de l'Abbaye,Chemin de Béthune À Douai 62880 Vendin-le-Vieil,50.461366244258656,2.8559283086204603,,,0,,0
VIM2EGLI,VIM2EGLI,Eglise,2 Rue de l’Egalité 62580 Vimy,50.37129066392327,2.8132863832688204,,,0,,0
ROU2PERC,ROU2PERC,Mairie,11 Rue du Marechal Foch 62320 Rouvroy,50.39379565064284,2.9041769761918275,,,0,,1
AVI2FCA2,AVI2FCA2,Cadras,21 Rue Edouard Dépret 62210 Avion,50.40859930807776,2.825069194607796,,,0,,0
BEU2QUIN,BEU2QUIN,Quinty,141 Route Nationale 62660 Beuvry,50.52200002440426,2.6644796120558185,,,0,,1
BEG2CENT,BEG2CENT,Rue de la Place,10 Rue de la Place 62150 Beugin,50.44279532406362,2.51678725151184,,,0,,1
MAR2LVAR,MAR2LVAR,Abbeville,80 Rue Jean Jaurès 62540 Marles-les-Mines,50.49536309970064,2.4964969696272745,,,0,,1
HAS1DOUC,HAS1DOUC,Rue Salengro,55 bis Rue Roger Salengro 62138 Haisnes,50.5087284580124,2.8068818078658304,,,0,,0
OIG2CDPM,OIG2CDPM,Petit Moulin,71 Rue Louis Pasteur 62590 Oignies,50.468362149811824,3.003733023533389,,,0,,0
BRU2PISC,BRU2PISC,Piscine,716 Rue Augustin Caron 62700 Bruay-la-Buissière,50.47314514381865,2.541625088556773,,,0,,1
HOU2ARAG,HOU2ARAG,Aragon,75 Rue du Mal Franchet d’Esperey 62150 Houdain,50.46172313806908,2.547341315635322,,,0,,0
COC1GAEA,COC1GAEA,Gare d'Eau,"D160E2, Courcelles-lès-Lens, Hauts-de-France",50.42816360584875,3.0220077447297826,,,0,,0
VEN1CIME,VEN1CIME,République,121 Rue du 8 Mai 1945 62880 Vendin-le-Vieil,50.455099829610326,2.8482463308195647,,,0,,0
HAS2LPOS,HAS2LPOS,La Poste,229 Route de Lens 62138 Haisnes,50.50553686755949,2.8086244713102952,,,0,,0
AVI2BH01,AVI2BH01,Hôtel de Ville,3 Place Duclos 62210 Avion,50.41409889297368,2.8342220773120776,,,0,,1
LIE1COD3,LIE1COD3,Descartes,2 Rue d’Avranches 62800 Liévin,50.41406450008295,2.769697153068863,,,0,,0
LEN1PSA2,LEN1PSA2,Cantin Salengro,78 Rue René Lanoy 62300 Lens,50.432791965181856,2.8334799751642348,,,0,,1
AIX2SGER,AIX2SGER,Centre,3 Rue de Bully 62160 Aix-Noulette,50.42692436729875,2.7116017705332185,,,0,,0
VAU2MAIR,VAU2MAIR,Mairie,380 Rue de Béthune 62131 Vaudricourt,50.502423060120215,2.6254004153136554,,,0,,0
LEN1CDPR,LEN1CDPR,Cité Provinces,8 Avenue de la Fosse 11 62300 Lens,50.44237683085471,2.7886138457003105,,,0,,0
HEN2BALO,HEN2BALO,Base de Loisirs,510 Avenue du Bord des Eaux 62110 Hénin-Beaumont,50.41107482221502,2.969188378099896,,,0,,1
COU1MAIR,COU1MAIR,Mairie,35 Rue Urianne Sorriaux 62710 Courrières,50.45907324907282,2.9452807252399067,,,0,,1
NOE1MAIS,NOE1MAIS,Maistre,37 Rue Béharelle 62290 Nœux-les-Mines,50.46581417122781,2.6663059818366053,,,0,,0
BUL1RLEC,BUL1RLEC,Casimir Beugnet,40 Rue Rhin Danube Imm Normandie 62160 Bully-les-Mines,50.45402831639923,2.720882483797116,,,0,,0
RUI1BH13,RUI1BH13,Charles Pecqueur,850 Avenue Charles Pecqueur 62620 Ruitz,50.46860166012165,2.600296345022244,,,0,,1
BEU1GARE,BEU1GARE,Gare,1335 Rue Georges Clémenceau 62660 Beuvry,50.53526379019919,2.6921696883192725,,,0,,1
BEU2MAIR,BEU2MAIR,Mairie,26 Rue Jean Jaurès 62660 Beuvry,50.52278636954632,2.682089689781241,,,0,,1
HAI2PD2B,HAI2PD2B,Place du 2 bis,4 Rue des Merles 62940 Haillicourt,50.47933687685833,2.5850126944251737,,,0,,0
OIG2CIVE,OIG2CIVE,Métaphone,25 Rue du Tordoir 62590 Oignies,50.45999730535462,2.9874440873711765,,,0,,1
CAR1BH25,CAR1BH25,Médiathèque,1 Rue du 11 Novembre 62220 Carvin,50.49180094863629,2.9530472817109423,,,0,,1
CAR2CAQU,CAR2CAQU,Centre Aquatique,Rue du Vieux Château,50.48148982952101,2.964169808289615,,,0,,1
CAR1CAQU,CAR1CAQU,Centre Aquatique,Rue du Vieux Château,50.481389568147485,2.964477905744905,,,0,,1
CAR2VCHA,CAR2VCHA,Vieux Château,Rue du Vieux Château,50.48269018847582,2.9627786375605227,,,0,,0
CAR1VCHA,CAR1VCHA,Vieux Château,Rue du Vieux Château,50.483284948299136,2.962265764831836,,,0,,0
LOZI1AB2,LOZI1AB2,Abreuvoir,2 c Rue Jean Bruyez 62540 Lozinghem,50.51897458499237,2.497683643255503,,,0,,0
AIX1MALT,AIX1MALT,Malterie,3 Rue de Bouvigny 62160 Aix-Noulette,50.42540001980201,2.705326145360805,,,0,,0
LEN1ZDGA,LEN1ZDGA,ZAC du Gard,18 Rue de Grossouvre 62300 Lens,50.42152990602775,2.820307335235684,,,0,,0
CAL2RDBR,CAL2RDBR,Rue de Bruay,129 Rue de Bruay 62470 Calonne-Ricouart,50.4844307908846,2.500132396402829,,,0,,0
DIV1CDEA,DIV1CDEA,Château d'Eau,1 Rue du 8 Mai 1945 62460 Divion,50.46613833918188,2.499187439463987,,,0,,1
AUC2CCOM,AUC2CCOM,Centre Cial.,17 Rue d’Allouagne 62260 Auchel,50.51485894697145,2.473455369555948,,,0,,1
DIE2ELOY,DIE2ELOY,Rue Eloy,29 Rue de Bours 62460 Diéval,50.4363210629674,2.444162225262968,,,0,,0
BRU1PEU7,BRU1PEU7,Europe - Quai 8,280 Rue Henri Cadot 62700 Bruay-la-Buissière,50.48092089594259,2.5486450241122345,,,0,,1
BRU1PEU6,BRU1PEU6,Europe - Quai 7,4 Residence Artois 62700 Bruay-la-Buissière,50.48075033562004,2.548700548543215,,,0,,1
LBS2ACOV,LBS2ACOV,Covoiturage,879 Rue Lavoisier 62113 Labourse,50.48197877654761,2.6837214304900736,,,0,,1
BAR1BAIL,BAR1BAIL,Bailleux,197 Rue d’Houdain 62620 Barlin,50.45341421538724,2.6033927595663,,,0,,0
MEU1CICA,MEU1CICA,Cité du Calvaire,28 Rue Casimir Beugnet 62410 Meurchin,50.495409389003584,2.9001639575093328,,,0,,0
GRE2FLAN,GRE2FLAN,Flandres,18 Rue de Beauséjour 62160 Grenay,50.45176239326413,2.7501372067640304,,,0,,1
REB2PPRI,REB2PPRI,Pont Prieur,45 Route Nationale 62150 Rebreuve-Ranchicourt,50.43387831205017,2.559811531689258,,,0,,0
LIE1ALSA,LIE1ALSA,Alsace,221 Rue d’Artois 62800 Liévin,50.43711001257835,2.783691564381778,,,0,,0
VEQ2LAIT,VEQ2LAIT,Laiterie,107 Rue Jean Jaures 62131 Verquin,50.50598303140195,2.6482672328316323,,,0,,0
PVE2DEGA,PVE2DEGA,De Gaulle,87 Rue du Général de Gaulle 62880 Pont-à-Vendin,50.47562245048834,2.889087810984573,,,0,,0
CAR2BH28,CAR2BH28,Plantigeons,1222 bis Rue de Buqueux 62220 Carvin,50.49222353193506,2.9740506747139817,,,0,,1
BRU1RDVI,BRU1RDVI,Viveret,1002 Rue Pierre Brossolette 62700 Bruay-la-Buissière,50.49809673826777,2.5616438105056565,,,0,,0
BEU1EPLA,BEU1EPLA,Eplaines,363 Rue Aristide Briand 62660 Beuvry,50.52499467212439,2.700372070184583,,,0,,0
EVI2CIHO,EVI2CIHO,Horbois,2 Cité des Horbois 62141 Évin-Malmaison,50.43667138798624,3.031325870432018,,,0,,1
AVI2LCO2,AVI2LCO2,Colonel Fabien,12 Rue Pierre Brossolette 62210 Avion,50.409775835988334,2.813342206141848,,,0,,0
VEN1CCOM,VEN1CCOM,Centre Cial.,11 Rue Louis Blériot 62880 Vendin-le-Vieil,50.4637292739368,2.8266172596764374,,,0,,0
LEN2EIF2,LEN2EIF2,Pôle Bergson,63 Rue Vincent Auriol 62300 Lens,50.44877902183237,2.829478627676868,,,0,,1
ROU2HBAR,ROU2HBAR,Parc des Iles,84 bis Rue Henri Barbusse 62320 Rouvroy,50.403820740633925,2.9247317959809074,,,0,,1
MAZ1HALT,MAZ1HALT,Lamartine,208 Rue Lamartine 62670 Mazingarbe,50.46205697577422,2.7036834802060263,,,0,,0
BET1RDAN,BET1RDAN,Anne d'Artois,634 Rue d’Aire 62400 Béthune,50.538736729811184,2.6302829080355368,,,0,,0
MAR1MILL,MAR1MILL,Millénium,16 Place du Rond-Point 62540 Marles-les-Mines,50.497575477350665,2.4922984061409075,,,0,,1
LIE2COD3,LIE2COD3,Descartes,2 Rue d’Avranches 62800 Liévin,50.41411833489017,2.769697616601066,,,0,,0
ANQ2RSAL,ANQ2RSAL,Cimetière,56 Rue Roger Salengro 62149 Annequin,50.50311680418062,2.7256611705379603,,,0,,0
BRU1SMAR,BRU1SMAR,Saint-Martin,24 Rue Jules Marmottan 62700 Bruay-la-Buissière,50.482570737113946,2.538513758752792,,,0,,0
MER1HDVM,MER1HDVM,Hôtel de ville,12 Place Jean Jaurès 62680 Méricourt,50.40194942847432,2.86653200919729,,,0,,1
LOZ1PDMO,LOZ1PDMO,Place du Mont,10 Rue Jean Bruyez 62540 Lozinghem,50.51377354050235,2.4887184351193072,,,0,,0
MON1MARC,MON1MARC,Mairie,34 Rue Roger Salengro 62640 Montigny-en-Gohelle,50.42718891991991,2.929738772007612,,,0,,0
AUC1MDLO,AUC1MDLO,Mt. De Lozinghem,2 Rue du Canigou 62260 Auchel,50.51486641357721,2.4826292682872584,,,0,,0
CAR2SPA2,CAR2SPA2,Saint-Paul,11 ter Rue Saint Paul 62220 Carvin,50.47293011585161,2.9203955830571715,,,0,,0
WIN2SALE,WIN2SALE,Salengro,67 Rue Roger Salengro 62410 Wingles,50.48776886523902,2.850027722885092,,,0,,0
HEN1SHEN,HEN1SHEN,Saint-Henri,721 Rue Pierre Brossolette 62110 Hénin-Beaumont,50.40892800070152,2.94289046952416,,,0,,1
LEN2SECU,LEN2SECU,Sécurité Sociale,13 Rue du Stade 62300 Lens,50.43189952432237,2.8411269729792457,,,0,,0
VEB1CICA,VEB1CICA,Cité Castors,162 Rue Pierre Mendes France 62232 Vendin-lès-Béthune,50.53971488210486,2.5981921332905134,,,0,,0
AVI2DELE,AVI2DELE,Delestraint,24 Rue du Général Delestraint 62210 Avion,50.41390897657609,2.8118788576334177,,,0,,0
LIE2MAI2,LIE2MAI2,C. Administratif,21 Rue Francois Raspail 62800 Liévin,50.42131874772145,2.7835652184876363,,,0,,1
HAR2SALI,HAR2SALI,Château Salins,28 Rue de Château Salins 62440 Harnes,50.44272600800576,2.879902442182692,,,0,,0
PVE2GARE,PVE2GARE,Gare,24 Rue Cesar Luccarini 62880 Pont-à-Vendin,50.47109494111563,2.876160506274637,,,0,,1
DOV1RDGU,DOV1RDGU,Rue de Guérous,69 Rue des Guérous 62138 Douvrin,50.50891965202594,2.8085015257728423,,,0,,0
AUM2PFLA,AUM2PFLA,Flandres,40 Rue Rudyard Kipling 62138 Haisnes,50.518335825316726,2.7976846096033974,,,0,,1
BET1MA02,BET1MA02,André Malraux Q2,241 Rue du Moulin Masclef 62400 Béthune,50.52104179347367,2.653511114662766,,,0,,1
BET1MA03,BET1MA03,André Malraux Q3,269 Rue Mannessier 62400 Béthune,50.52091569038994,2.6537073289992,,,0,,1
BET1MA01,BET1MA01,André Malraux Q1,241 Rue du Moulin Masclef 62400 Béthune,50.52114094638714,2.653328801579834,,,0,,1
AUC2PROV,AUC2PROV,Fraternité,24 Rue de la Fraternité 62260 Auchel,50.50720449447052,2.457959540476326,,,0,,1
BET2CORB,BET2CORB,Mannessier,1205 Rue de Lille 62400 Béthune,50.52304136450892,2.657393742103228,,,0,,1
LOO2GUER,LOO2GUER,La Guerre,135 Route de Béthune 62750 Loos-en-Gohelle,50.45077520530254,2.788548853628482,,,0,,1
BRU1MARM,BRU1MARM,Ernest Wery,340 Rue Ernest Wery 62700 Bruay-la-Buissière,50.48424758927448,2.544454567314251,,,0,,0
MAI1PDRA,MAI1PDRA,Parc d'Olhain,,50.44344376311004,2.573749768897108,,,0,,0
HAI1QDBU,HAI1QDBU,Quai de Busnes,615 Rue Léon Blum 62940 Haillicourt,50.47536693382983,2.568810799438108,,,0,,0
AVI1SALI,AVI1SALI,Salingue,22 Rue du Bonnier 62210 Avion,50.415654875412926,2.846482825187372,,,0,,1
AVI1PINC,AVI1PINC,Pinchonvalles,280 Boulevard Henri Martel 62210 Avion,50.40062516411631,2.8105881540804383,,,0,,0
BAJ2ABRE,BAJ2ABRE,Abreuvoir,14 Grande Rue 62150 Bajus,50.42025334550641,2.4779175230394883,,,0,,0
LEN2BOUR,LEN2BOUR,Bourdonnais,57 Rue de la Bourdonnais 62300 Lens,50.440761457415846,2.817162596489076,,,0,,0
HES2BH22,HES2BH22,8 mai 1945,1 Rue du 4 Septembre 62196 Hesdigneul-lès-Béthune,50.50248413556954,2.589347171137212,,,0,,1
ANN2PEGL,ANN2PEGL,Mairie,Place Pasteur 62880 Annay,50.46351353182723,2.880225671447134,,,0,,1
BRU1RPOI,BRU1RPOI,Porte Nord,5000 f Avenue de la Liberation (La Bussière) 62700 Bruay-la-Buissière,50.49542907402645,2.577553394984848,,,0,,0
HEN2LYP2,HEN2LYP2,Lycée Pasteur,698 Rue Léon Blum 62110 Hénin-Beaumont,50.4306745094116,2.9490526084936484,,,0,,0
VEB2MAIR,VEB2MAIR,Mairie,115 Rue François Mitterrand 62232 Vendin-lès-Béthune,50.54216788286576,2.6088620288824105,,,0,,1
BRU2HDVI,BRU2HDVI,Hôtel de Ville,185 Rue C et Honorat Bouillez 62700 Bruay-la-Buissière,50.482814830344125,2.548132734953641,,,0,,0
NOL1PTT_,NOL1PTT_,Poste,60 Rue de Carvin 62221 Noyelles-sous-Lens,50.42875055702429,2.876998271355113,,,0,,0
BRU2LYT2,BRU2LYT2,Campus TP,592 Rue du Corps du Bois 62700 Bruay-la-Buissière,50.49523005623895,2.5270876329457983,,,0,,1
CHO1ECDO,CHO1ECDO,Ecole Dolto,411 c Rue Principale 62920 Chocques,50.54114459458114,2.574337717137276,,,0,,0
BAJ2GARE,BAJ2GARE,Rue de Diéval,2 Rue de la Gare 62150 Bajus,50.42343341711181,2.4745556921863168,,,0,,0
AUC2PJGU,AUC2PJGU,Mairie 4,11 Place Jules Guesde 62260 Auchel,50.50402730933375,2.46799595644004,,,0,,1
HOU1ARAG,HOU1ARAG,Aragon,75 Rue du Mal Franchet d’Esperey 62150 Houdain,50.46182185412346,2.547327673443582,,,0,,0
VIM1GAMB,VIM1GAMB,Gambetta,31 Rue Gambetta 62580 Vimy,50.36814174180917,2.8061015074491547,,,0,,0
ANZ1MAIR,ANZ1MAIR,Mairie,13 Rue Paul Vaillant Couturier 62232 Annezin,50.53134566838998,2.6181914228504493,,,0,,0
VIM2GAMB,VIM2GAMB,Gambetta,16 Rue Gambetta 62580 Vimy,50.36916642649751,2.805648080244876,,,0,,0
VEQ2POST,VEQ2POST,Poste,66 b Rue Fernand Desmazieres 62131 Verquin,50.50057577301133,2.636333480712036,,,0,,0
MER2LPAR,MER2LPAR,Le Parc,33 Rue Frèdèric Ozanam 62680 Méricourt,50.40133914898591,2.8850007372466204,,,0,,0
FOU2JJAU,FOU2JJAU,Jaurès,53 Rue Jean Jaures 62740 Fouquières-lès-Lens,50.42669668220598,2.9105320537246886,,,0,,0
ANQ2HEBU,ANQ2HEBU,Hébuterne,5000 Boulevard d’Hebuterne 62149 Annequin,50.50467427607605,2.7181892479693213,,,0,,0
SAY1BDO2,SAY1BDO2,Côte du Poivre,Rue du Calvaire 62113 Sailly-Labourse,50.50629454851069,2.713516883774433,,,0,,1
LEN2CEPA,LEN2CEPA,Artisanat,286 Route de Béthune 62300 Lens,50.44041984307851,2.808041055055154,,,0,,0
FOU1ALLA,FOU1ALLA,EHPAD,27 Rue du Général Leclerc 62740 Fouquières-lès-Lens,50.42413486774515,2.9037751130827965,,,0,,0
BRU1PDGU,BRU1PDGU,Centre Cial.,1018 Avenue de la Liberation (La Bussière) 62700 Bruay-la-Buissière,50.49292260092306,2.5699607529868604,,,0,,0
BET2LROT,BET2LROT,La Rotonde,20 Rue du Maréchal Lyautey 62400 Béthune,50.52200933333522,2.6323522478558625,,,0,,1
MER1STEC,MER1STEC,Saint-Exupéry,12 Rue Saint Exupery 62680 Méricourt,50.411628548534416,2.8754100961097167,,,0,,0
BET1GAR6,BET1GAR6,Gare - Quai 6,379 Avenue de Lens 62400 Béthune,50.52090839490241,2.642365130079728,,,0,,1
BUS2CHBE,BUS2CHBE,Beaulieu,,50.58208522563146,2.511129848610257,,,0,,0
CAS2RHTR,CAS2RHTR,Rue Haute,594 Rue du Bois 62350 Calonne-sur-la-Lys,50.61832783150007,2.6173264914507888,,,0,,0
BUS1LHOL,BUS1LHOL,La Hollanderie,1242 Rue de Saint-Venant 62350 Busnes,50.59868142728128,2.522927788158409,,,0,,0
ANG1MOUL,ANG1MOUL,Clemenceau,53 Rue Georges Clémenceau 62143 Angres,50.40755777086897,2.762396242624859,,,0,,0
LEN1ECBD,LEN1ECBD,Desrousseaux,31 Avenue du Grand Condé 62300 Lens,50.438612352509786,2.8341697282900147,,,0,,1
DIV2PCL2,DIV2PCL2,Polyclinique,22 Rue Baudelaire 62460 Divion,50.47733834288844,2.489789441325703,,,0,,1
LEN2RSEL,LEN2RSEL,Sellier,130 Rue Roger Salengro 62300 Éleu-dit-Leauwette,50.42372898705587,2.8108761623300587,,,0,,1
HOU1MAIR,HOU1MAIR,Mairie,96 Rue de la Gare 62150 Houdain,50.4527441865485,2.535218172285691,,,0,,0
LEN2RLON,LEN2RLON,Londres,Tour Daumier Rue Courbet 62300 Lens,50.44359874306121,2.834738968463417,,,0,,0
ROU1HOPO,ROU1HOPO,Poste,166 Rue du Général de Gaulle 62320 Rouvroy,50.40220055935383,2.906728678368351,,,0,,1
AVI1FCA2,AVI1FCA2,Cadras,20 Rue Edouard Dépret 62210 Avion,50.40865292029217,2.825125878708969,,,0,,0
LIE2LYH2,LIE2LYH2,Lycée Hennebique,104 Rue Jules Ferry 62800 Liévin,50.42587496682413,2.7533795523891667,,,0,,1
BRU1BH16,BRU1BH16,Bodelot,925 bis Rue Louis Dussart 62700 Bruay-la-Buissière,50.47654543329456,2.557287326220932,,,0,,1
SAI1HDVS,SAI1HDVS,Hôtel de Ville,12 Rue Franchet d’Esperey 62114 Sains-en-Gohelle,50.44678236616461,2.6833238949311475,,,0,,1
BRU1VHU2,BRU1VHU2,Victor Hugo,190 Rue Emile Basly 62700 Bruay-la-Buissière,50.483516312752464,2.536338006402189,,,0,,0
LIE2ACCO,LIE2ACCO,Accordéonneux,161 Rue Germain Delbecque 62750 Loos-en-Gohelle,50.437972736313945,2.7707600995512696,,,0,,0
VEM2MARI,VEM2MARI,Marignane,11 Résidence Marignane 62980 Vermelles,50.492464088840535,2.7487846448857582,,,0,,0
LOO1CAST,LOO1CAST,Castors,5 Rue Léo Lagrange 62750 Loos-en-Gohelle,50.460621526929046,2.79962871387779,,,0,,0
BET2LAMA,BET2LAMA,Lamartine,72 Place Lamartine 62400 Béthune,50.53428338930775,2.639223206511592,,,0,,0
HER1JJAU,HER1JJAU,Jean Jaurès,89 Rue Jean Jaures 62530 Hersin-Coupigny,50.44495968058269,2.646750972021158,,,0,,0
HAR2COVH,HAR2COVH,Collège Hugo,25 Rue François Delattre 62440 Harnes,50.44952643837456,2.90199604094878,,,0,,1
MEU2JGUE,MEU2JGUE,Mairie,30 Rue Jules Guesde 62410 Meurchin,50.49672677453104,2.8905860046758542,,,0,,1
BAJU1ABR,BAJU1ABR,Abreuvoir,16 a Grande Rue 62150 Bajus,50.420200167339374,2.4773415767087705,,,0,,0
COC2RBRI,COC2RBRI,Briquet,8 Rue Raoul Briquet 62970 Courcelles-lès-Lens,50.419020177051074,3.013920110298196,,,0,,0
COU1ECJM,COU1ECJM,Ecole J.Moulin,20 Rue des Colombes 62710 Courrières,50.45320409349503,2.954541121780137,,,0,,1
DIV1CHAP,DIV1CHAP,Chapelle,35 Rue du General Leclerc 62460 Divion,50.48270231591404,2.51101026884998,,,0,,1
LEN2CIME,LEN2CIME,Henri Barbusse,66 ter Rue Constant Darras 62430 Sallaumines,50.42408165302899,2.846146927927808,,,0,,1
BIL2EPIN,BIL2EPIN,Epinette,72 Avenue Leon Blum 62420 Billy-Montigny,50.412721023266826,2.9211428256792384,,,0,,0
AUC1LMAN,AUC1LMAN,La Manaie,11 Rue de Roncevaux 62260 Auchel,50.51635752695712,2.481043594547951,,,0,,1
LIE1NAU2,LIE1NAU2,Nauticaa Q4,2 bis Rue Hoche 62800 Liévin,50.41773914960295,2.7708803491630003,,,0,,1
BRU2BH01,BRU2BH01,Voltaire,71 Rue Voltaire 62940 Haillicourt,50.473927512258605,2.5755664962389537,,,0,,1
MER2PGER,MER2PGER,Henri Hotte,15 Rue Jules Mousseron 62680 Méricourt,50.40538668077867,2.880790748071083,,,0,,1
HEN1GAUM,HEN1GAUM,Rufisque,1275 Avenue du Bord des Eaux 62110 Hénin-Beaumont,50.40686092851441,2.975481691068273,,,0,,0
AIX2RBOU,AIX2RBOU,Rue de Bouvigny,58 Rue de Bouvigny 62160 Aix-Noulette,50.42260357160417,2.70432252283976,,,0,,0
LOO1ZAL,LOO1ZAL,Vasco de Gama,198 bis Rue Roger Salengro 62750 Loos-en-Gohelle,50.44694847504389,2.801821252353725,,,0,,0
BET1CESP,BET1CESP,Centre Aquatique,409 Rue Fernand Bar 62400 Béthune,50.53207813022056,2.634846577840106,,,0,,0
AVI1PBOU,AVI1PBOU,Bourel,8 Rue Voltaire 62210 Avion,50.416960169196685,2.8454568634871964,,,0,,1
DIE1PLAC,DIE1PLAC,Mairie,286 Rue du 8 Mai 1945 62460 Diéval,50.435750359164295,2.45025792032624,,,0,,1
ANZ2MUSS,ANZ2MUSS,Musset,131 Rue des Martyrs 62232 Annezin,50.52653143200085,2.6127319788926826,,,0,,0
LIE2RPIE,LIE2RPIE,Rue Piette,116 Rue du Docteur Piette 62800 Liévin,50.43156080785288,2.789752762088842,,,0,,0
OUR2DELA,OUR2DELA,Rue de la Comté,1017 Rue Alphonse Deladiennee 62460 Ourton,50.45322726860376,2.4774478161714755,,,0,,1
LEN1GA04,LEN1GA04,Gares - Quai 4,73 Rue Jean Letienne 62300 Lens,50.42779719601316,2.8260142079313537,,,0,,1
BAR2COLL,BAR2COLL,Collège Moulin 4,71 Rue d’Hersin 62620 Barlin,50.457010579958805,2.624029353676013,,,0,,0
LIB1GARE,LIB1GARE,Gare - Quai 1,1 Rue Étienne Pruvost 62820 Libercourt,50.47999278160496,3.008204330507486,,,0,,1
BIL1RLAN,BIL1RLAN,Langevin,9 Place Henri Rol Tanguy 62420 Billy-Montigny,50.4126044041784,2.901917879080117,,,0,,1
NOE2EGLI,NOE2EGLI,Eglise,10 Residence Jean Cocteau 62290 Nœux-les-Mines,50.48062430959415,2.66051164813652,,,0,,0
DOV2CELO,DOV2CELO,Carrefour Eloi,9 Rue du 8 Mai 62138 Douvrin,50.50857293137109,2.8372971927001145,,,0,,1
HEN2GAR3,HEN2GAR3,Gare,37 Rue Parmentier 62110 Hénin-Beaumont,50.41759100247793,2.952895618658579,,,0,,1
NOL2HDVN,NOL2HDVN,Mairie,17 Rue de la République 62221 Noyelles-sous-Lens,50.43097843115656,2.8743392147027964,,,0,,1
LEN1CHL3,LEN1CHL3,Hôpital Ouest,51 Grand Chemin de Loos 62300 Lens,50.43810847289957,2.814116679449803,,,0,,0
LIE2LIBE,LIE2LIBE,Liberté,Rue de la Liberté 62800 Liévin,50.437676580242055,2.7758432518923555,,,0,,0
HOU2MAIR,HOU2MAIR,Mairie,120 Rue de la Gare 62150 Houdain,50.45288798887909,2.535064156435066,,,0,,0
ANN1PEGL,ANN1PEGL,Mairie,Place Pasteur 62880 Annay,50.463451472811286,2.8800563247087982,,,0,,1
COU1CCCO,COU1CCCO,Centre Cial.,26 Rue Raoul Briquet 62710 Courrières,50.446067975013705,2.944322234263707,,,0,,1
SAY1ODES,SAY1ODES,Désuert,25 Rue de Labourse 62113 Sailly-Labourse,50.50095476935503,2.689802735435712,,,0,,0
LOO2PALI,LOO2PALI,Palissy,137 Rue Roger Salengro 62750 Loos-en-Gohelle,50.449659634186645,2.7990358883124866,,,0,,0
ROU1GEND,ROU1GEND,Gendarmerie,204 Rue du Général de Gaulle 62320 Rouvroy,50.39690443508257,2.903285569265343,,,0,,1
LOI2GARE,LOI2GARE,Gare 4,12 Rue Léon Blum 62218 Loison-sous-Lens,50.43936635235689,2.8600844239403904,,,0,,0
NOE2MAIR,NOE2MAIR,Mairie,101 Rue Nationale 62290 Nœux-les-Mines,50.48091641971507,2.6620180512100577,,,0,,1
BRU1JDBO,BRU1JDBO,Jambe de Bois,1268 Rue du Chemin des Dames 62700 Bruay-la-Buissière,50.500695816073616,2.56311835142216,,,0,,0
BET1JUIN,BET1JUIN,Juin,556 Avenue du Maréchal Juin 62400 Béthune,50.52354197130356,2.636681647989809,,,0,,0
BRU1BATN,BRU1BATN,Batna,922 Rue Paul Daguercar 62700 Bruay-la-Buissière,50.49016452367167,2.5248183045211694,,,0,,0
BRU2RDFL,BRU2RDFL,Les Fleuves,2 Rue de la Romanche 62700 Bruay-la-Buissière,50.486373587314176,2.564966333425504,,,0,,0
AUC2POGO,AUC2POGO,Pogon,75 Rue Georges Bernard 62260 Auchel,50.50005220189708,2.4845274504118944,,,0,,0
HAR2CIME,HAR2CIME,Verdun,115 Rue de Stalingrad 62440 Harnes,50.44649960175734,2.8868284850670283,,,0,,1
AUM1CIZI,AUM1CIZI,Briquet,203 Rue Ignace Humblot 62138 Auchy-les-Mines,50.50883096877219,2.7890574834747195,,,0,,0
EVI2CIVI,EVI2CIVI,Victoire,166 Rue Emile Basly 62141 Évin-Malmaison,50.43898530048569,3.0267214917918066,,,0,,0
DRM1MAI2,DRM1MAI2,Mairie,363 Rue de Barlin 62131 Drouvin-le-Marais,50.49397863712246,2.6300916493332287,,,0,,1
VEQ2CAST,VEQ2CAST,Castors,139 Rue Fernand Desmazieres 62131 Verquin,50.498094175474655,2.631128420428471,,,0,,1
VIM2MES1,VIM2MES1,Mésanges,17 Rue Abel Bergaigne 62580 Vimy,50.37370187197379,2.7998674474971064,,,0,,0
HEN1TAUV,HEN1TAUV,Tour d'Auvergne,163 Rue de la Tour d’Auvergne 62110 Hénin-Beaumont,50.40060283503644,2.9657856121426467,,,0,,0
VEM2JOUH,VEM2JOUH,Jouhaux,26 Rue Arthur Lamendin 62980 Vermelles,50.48499796466708,2.7465578043334737,,,0,,0
LEN2CHL2,LEN2CHL2,Schaffner,7 Rue Joseph Louis de Lagrange 62300 Lens,50.44116426264389,2.821985579437166,,,0,,1
ANG2PMA1,ANG2PMA1,Mairie,87 Route de Souchez 62143 Angres,50.40795390234241,2.7567833572353884,,,0,,0
RUI1ZIDR,RUI1ZIDR,ZI Ouest,70 Rue de Bethune 62620 Ruitz,50.47203139009013,2.594901843438711,,,0,,1
AUC1PJGU,AUC1PJGU,Mairie 3,15 Place Jules Guesde 62260 Auchel,50.504044908760896,2.4683195508129545,,,0,,1
LEN1STWA,LEN1STWA,Lyonnais,79 Rue d’Artois 62300 Lens,50.44185078358043,2.7950019151446472,,,0,,0
GRE2MAIR,GRE2MAIR,Mairie,20 Place Pasteur 62160 Grenay,50.449035671291625,2.7362734821108345,,,0,,1
MOB2LEMA,MOB2LEMA,Le Marquais,212 Route de Béthune 62350 Mont-Bernanchon,50.593842646787415,2.567724307973084,,,0,,0
OBL1MAIR,OBL1MAIR,Mairie,915 Rue Leger Mayeux 62232 Vendin-lès-Béthune,50.54851148635497,2.6000965079913843,,,0,,1
VEB1RDLC,VEB1RDLC,Creuse,43 Rue Pierre Mendes France 62232 Vendin-lès-Béthune,50.54034122365408,2.6072895125355675,,,0,,1
HEN2PREP,HEN2PREP,République,109 Rue de l’’Abbaye 62110 Hénin-Beaumont,50.42180465457545,2.9464024520924386,,,0,,0
LEN2FOVO,LEN2FOVO,Saint-Edouard,40 Rue Saint Edouard 62300 Lens,50.44357619375017,2.813213184511717,,,0,,0
MAR2COUT,MAR2COUT,Paul Vaillant C.,90 Rue Paul Vaillant Couturier 62540 Marles-les-Mines,50.513346752643606,2.5064593470938314,,,0,,0
MAZ2MAGE,MAZ2MAGE,Magenta,36 Rue Lamartine 62670 Mazingarbe,50.47008483042792,2.713329633581767,,,0,,1
GAU2RDCH,GAU2RDCH,Rue du Château,356 Chaussée Brunehaut 62150 Gauchin-Légal,50.41327614219765,2.583984719598485,,,0,,1
AUC1BH01,AUC1BH01,Anatole France,338 Boulevard Emile Basly 62260 Auchel,50.51659375378258,2.452607089878681,,,0,,1
BET1GAR4,BET1GAR4,Gare - Quai 4,309 Avenue de Lens 62400 Béthune,50.52084444601345,2.64282912094703,,,0,,1
BRU2ALO4,BRU2ALO4,Les Alouettes Q3,540 Rue Alfred Leroy 62700 Bruay-la-Buissière,50.47576974384938,2.544124299833104,,,0,,1
LEN2BH04,LEN2BH04,Faculté J.Perrin,5 Route de la Bassée 62300 Lens,50.43328415955916,2.8225556900323028,,,0,,1
CUI2PLAN,CUI2PLAN,Coq Ridé,103 Rue Anatole France 62149 Cuinchy,50.51371315284689,2.7475380314658926,,,0,,0
CAL1MARN,CAL1MARN,Marne,6 Boulevard de la Paix 62470 Calonne-Ricouart,50.4938091723842,2.483496473479032,,,0,,1
MER1AVSI,MER1AVSI,Avenue Sikorski,16 Rue de Lens 62680 Méricourt,50.41811855950903,2.886981328486293,,,0,,0
NOL2BOUR,NOL2BOUR,Bourganeuf,13 Rue de Bourganeuf 62221 Noyelles-sous-Lens,50.422382612625256,2.8905392026410084,,,0,,0
HUL1CIME,HUL1CIME,Cimetière,31 Rue du Général Leclerc 62410 Hulluch,50.4861161839601,2.8147700591436564,,,0,,0
HEN2CORA,HEN2CORA,Coron Ramon,146 Rue Paul Vaillant Couturier 62110 Hénin-Beaumont,50.41733620688465,2.9500135889234023,,,0,,0
DOU2CAEU,DOU2CAEU,Euracampus,622 Rue des Hauts de France 62110 Hénin-Beaumont,50.45863967910334,2.979429170838225,,,0,,1
GRE2PICA,GRE2PICA,Picardie,159 Rue de Gascogne 62750 Loos-en-Gohelle,50.45202371853206,2.7577560394702423,,,0,,0
RUI2CIME,RUI2CIME,Cimetière,17 Rue de Maisnil 62620 Ruitz,50.46470414898033,2.584743646058566,,,0,,1
CAT1SNIC,CAT1SNIC,Castelain,36 Route Nationale 62260 Cauchy-à-la-Tour,50.51022406999946,2.44254712783936,,,0,,1
AUC2BRIQ,AUC2BRIQ,Val d'Enfer,316 Rue Raoul Briquet 62260 Auchel,50.51664904189604,2.460374331735451,,,0,,0
ROU1HBAR,ROU1HBAR,Parc des Iles,84 bis Rue Henri Barbusse 62320 Rouvroy,50.40411428263366,2.925268737983122,,,0,,1
SAL1GPHI,SAL1GPHI,Gérard Philippe,608 Rue Florent Evrard 62430 Sallaumines,50.41427608424826,2.875283997755717,,,0,,0
OIG1PGAM,OIG1PGAM,Gambetta,71 Rue Léon Jouhaux 62590 Oignies,50.466073638500994,3.013711326423476,,,0,,1
LAC1LROC,LAC1LROC,La Rochelle,1 e Rue du 14 Juillet 62150 La Comté,50.42653769179644,2.50379310544948,,,0,,0
VIO2N7RO,VIO2N7RO,Rue d'Ouvert,5 Rue d’Ouvert 62138 Violaines,50.54243887704767,2.763583247254003,,,0,,0
AVI1BH01,AVI1BH01,Hôtel de Ville,6 Rue René Lannoy 62210 Avion,50.414115986685744,2.8344328824005984,,,0,,1
BRU2MARM,BRU2MARM,Ernest Wery,340 Rue Ernest Wery 62700 Bruay-la-Buissière,50.48428349987942,2.544440653865764,,,0,,0
AUC1CVIL,AUC1CVIL,Front Populaire,18 Avenue Andre Malraux 62260 Auchel,50.50348400650659,2.4726367051376474,,,0,,1
WIN1SALE,WIN1SALE,Salengro,79 Rue Roger Salengro 62410 Wingles,50.48751924182879,2.849645470137625,,,0,,0
WIN1VTIL,WIN1VTIL,Vert Tilleul,295 Rue Gabriel Péri 62410 Wingles,50.48702608448377,2.834241641442376,,,0,,1
LEN1BH08,LEN1BH08,Halle Tetelin,7 bis Rue Alain 62300 Lens,50.44387786699161,2.8300347435910247,,,0,,1
LEN1COQC,LEN1COQC,Condorcet  Q2,3 Rue Gustave Delory 62300 Lens,50.43250287540352,2.838393757141367,,,0,,0
BET1SULL,BET1SULL,Sully,601 Avenue Sully 62400 Béthune,50.53121729710103,2.6271424210543994,,,0,,0
ANQ2FECO,ANQ2FECO,Ferry,39 Rue Roger Salengro 62149 Annequin,50.50435614612183,2.7252628138884147,,,0,,1
LIE2LPL2,LIE2LPL2,Lampin,8 Rue Gustave Lampin 62800 Liévin,50.42974837029226,2.7723325516965933,,,0,,0
LIE2BARA,LIE2BARA,Baras,2 Rue Pasteur 62800 Liévin,50.43028024567796,2.758725768025036,,,0,,0
LIE2BERL,LIE2BERL,Blanqui,9 Rue Georges Carpentier 62800 Liévin,50.41724822289153,2.7650200950415305,,,0,,0
LIE2PSIM,LIE2PSIM,Simon,25 bis Rue Dutemple 62800 Liévin,50.430834978618776,2.7512574262105627,,,0,,0
LIE2NERU,LIE2NERU,Néruda,123 Allee Anatole France 62800 Liévin,50.42916797403565,2.7689844460398354,,,0,,0
BAR1MARI,BAR1MARI,Marina,246 Rue d’Houdain 62620 Barlin,50.453693852442,2.5985037048922,,,0,,0
BUL1BREB,BUL1BREB,Cité des brebis,137 Rue Casimir Beugnet 62160 Bully-les-Mines,50.45682688192979,2.721128747109317,,,0,,1
CAT1EGLI,CAT1EGLI,Eglise,5 Place Eugene Fontaine 62260 Cauchy-à-la-Tour,50.502461743477376,2.4546564727039955,,,0,,1
WIN2PJAU,WIN2PJAU,Mairie,44 Rue Jules Guesde 62410 Wingles,50.49497358000345,2.854250601231764,,,0,,0
LEN1GA08,LEN1GA08,Gares - Quai 8,77 Rue Jean Letienne 62300 Lens,50.42753582818978,2.8263066326133783,,,0,,1
EST2MONU,EST2MONU,Monument,40 Rue Blanche Dupont 62880 Estevelles,50.47581252017958,2.906467747282803,,,0,,1
HAS1LPOS,HAS1LPOS,La Poste,231 Route de Lens 62138 Haisnes,50.50544747679616,2.80853922299912,,,0,,0
HAR2CIAR,HAR2CIAR,Rue Léon Duhamel,13 Rue Léon Duhamel 62440 Harnes,50.45306248876276,2.911493761790952,,,0,,1
BET1CHUR,BET1CHUR,Churchill,32 Avenue de Lens 62400 Béthune,50.523150223162354,2.6463754490537306,,,0,,0
CAR1FRET,CAR1FRET,Saint-Druon,2 Rue du Ronchois 62220 Carvin,50.48484639934159,2.938772978941411,,,0,,1
LEN1EIF2,LEN1EIF2,Pôle Bergson,3 Rue de l’Industrie 62300 Lens,50.44849045583251,2.829841149717125,,,0,,1
FES1FLOM,FES1FLOM,Ferme Lombart,594 Grand Rue 62149 Festubert,50.538915787198384,2.738749069554273,,,0,,0
BET2CESP,BET2CESP,Centre Aquatique,353 Rue Fernand Bar 62400 Béthune,50.53215920995692,2.6347063064444547,,,0,,0
FRE1SOUC,FRE1SOUC,Souchez,77 Rue Roger Salengro 62150 Fresnicourt-le-Dolmen,50.43028295131366,2.6158279154027,,,0,,1
GIB2EGLI,GIB2EGLI,Mairie,1 Rue des Bois Blancs 62149 Givenchy-lès-la-Bassée,50.52904648648285,2.7578535492072365,,,0,,1
AUM1MARA,AUM1MARA,Centre Cial.,2 Avenue Frederic de Klerk 62138 Auchy-les-Mines,50.520108519214574,2.7938451544238925,,,0,,1
FOU1CDES,FOU1CDES,Desmoulins,56 Rue Camille Desmoulins 62740 Fouquières-lès-Lens,50.430101099078726,2.907789629126723,,,0,,1
HEM1HERM,HEM1HERM,Rue Baraffles,50 Rue de Baraffles 62150 Hermin,50.41952858542196,2.561306788074353,,,0,,0
VIO2CDLE,VIO2CDLE,Ch. de l'Étang,30 Rue du Marais 62138 Violaines,50.54477053820092,2.763828357839905,,,0,,0
LIE1WROU,LIE1WROU,Waldeck-Rousseau,54 Rue Waldeck Rousseau 62800 Liévin,50.4235151010568,2.7638796604759843,,,0,,1
ANQ1MAIR,ANQ1MAIR,Mairie,37 bis Route Nationale 41 62149 Annequin,50.50945629612519,2.726751401440064,,,0,,0
MER2AVSI,MER2AVSI,Avenue Sikorski,16 Rue de Lens 62680 Méricourt,50.418145099973465,2.8870658805281257,,,0,,0
MER1PGER,MER1PGER,Henri Hotte,9 Rue Jules Mousseron 62680 Méricourt,50.405756537546864,2.8803454664404176,,,0,,1
CAL2ECJV,CAL2ECJV,Ecole Vilar,11 Rue de Katowice 62470 Calonne-Ricouart,50.48627045216188,2.48556977981698,,,0,,0
CAU2CALV,CAU2CALV,Calvaire,22 Rue du Calvaire 62150 Caucourt,50.40297895996084,2.5730538694449447,,,0,,0
AIX1CIME,AIX1CIME,Cimetière,57 Rue de Bully 62160 Aix-Noulette,50.43059448616504,2.7144244652539653,,,0,,0
DIE2PLAC,DIE2PLAC,Mairie,286 Rue du 8 Mai 1945 62460 Diéval,50.43573234997789,2.450328120672723,,,0,,0
AUC2GROU,AUC2GROU,Briquet,44 Rue Raoul Briquet 62260 Auchel,50.50797092586608,2.4715796222216446,,,0,,1
FES2GRUE,FES2GRUE,Grande Rue,1130 Grand Rue 62149 Festubert,50.53513381723141,2.7430401585572,,,0,,0
VIO1PPLA,VIO1PPLA,Petite Place,63 Rue de la Petite Place 62138 Violaines,50.54541676479119,2.7864872058772074,,,0,,0
HEN2MALA,HEN2MALA,Rimbaud,1 Residence Arthur Rimbaud 62110 Hénin-Beaumont,50.42076820109356,2.958088869301868,,,0,,0
BAR1FOS5,BAR1FOS5,Fosse 5,26 Rue d’Hersin 62620 Barlin,50.45597979880339,2.62742451278012,,,0,,0
LEN2PLUM,LEN2PLUM,Plumecoq,402 Route de Béthune 62300 Lens,50.44371820883902,2.801875657660855,,,0,,0
ANG2LECL,ANG2LECL,Leclerc,40 Rue Marcel Leclerc 62143 Angres,50.4144936638988,2.757189045455958,,,0,,0
BAU2MARA,BAU2MARA,Marais,2 Rue Jules Guesde 59221 Bauvin,50.51754150688242,2.892504404051653,,,0,,0
AUC1CLIN,AUC1CLIN,Dr Laënnec,61 Rue du Docteur Laennec 62260 Auchel,50.501400320957615,2.4746988665198155,,,0,,0
LIB1SDRE,LIB1SDRE,Six-Drèves Q1,36 Résidence les Charmilles 62820 Libercourt,50.476814843676735,3.0118174659655663,,,0,,0
MER2MONT,MER2MONT,Montesquieu,5 Rue Montesquieu 62680 Méricourt,50.39906767258508,2.8689443014251417,,,0,,0
COU2ROTO,COU2ROTO,Rotois,94 Rue Roger Salengro 62710 Courrières,50.45968670423767,2.955422028152942,,,0,,1
MER1CWAL,MER1CWAL,Collège Wallon,1 Rue du 19 Mars 1962 62680 Méricourt,50.40955672153312,2.8792913440279304,,,0,,1
CAR1BH26,CAR1BH26,Mairie,1 Rue Willerval 62220 Carvin,50.49024908076884,2.960130478676424,,,0,,1
LIE1OCTR,LIE1OCTR,Octroi,162 Rue Jules Ferry 62800 Liévin,50.43510949219472,2.7448024180954635,,,0,,1
CAR1BH30,CAR1BH30,Notre Dame,13 Boulevard de la Justice 62220 Carvin,50.489727122888816,2.9424459006970887,,,0,,1
AUM1EGLI,AUM1EGLI,Mairie,156 Rue Ignace Humblot 62138 Auchy-les-Mines,50.511671154957575,2.7851857855532245,,,0,,1
ABL2NAMU,ABL2NAMU,Namur,140 Rue Marcel Lancino 62153 Ablain-Saint-Nazaire,50.394367851364485,2.703793398413467,,,0,,0
HEN2ESAT,HEN2ESAT,ESAT,183 Rue de la Libération 62640 Montigny-en-Gohelle,50.4257986150305,2.940720219479274,,,0,,0
FES2FLOM,FES2FLOM,Ferme Lombart,568 Grand Rue 62149 Festubert,50.5391504985662,2.73830047568618,,,0,,0
VEM2POIS,VEM2POIS,Poissonniers,85 Route Nationale 62980 Vermelles,50.47761573201696,2.737864672419263,,,0,,0
BEU1JBAI,BEU1JBAI,Bailleul,1084 Rue Jacques Morat 62660 Beuvry,50.53796468313422,2.691977669922353,,,0,,0
LIB1ANTK,LIB1ANTK,Antkowiak,8 Rue Wasiela Antkowiak 62820 Libercourt,50.487268166772544,3.010031439707225,,,0,,0
RUI1CHPE,RUI1CHPE,Charles Pecqueur,680 Avenue Charles Pecqueur 62620 Ruitz,50.46987952972072,2.5984895888491235,,,0,,0
VEN1LEN2,VEN1LEN2,Lens 2 Entrée B,2 ter Rue Louis Blériot 62880 Vendin-le-Vieil,50.4610359283274,2.82704076705715,,,0,,1
SOU1JAUR,SOU1JAUR,Jaurès,62 Rue Jean Jaurés 62153 Souchez,50.39592295445286,2.7483167121477687,,,0,,0
BRU1BH05,BRU1BH05,Brosselette,1254 Rue Pierre Brossolette Labuiss 62700 Bruay-la-Buissière,50.49853982495736,2.564641813019782,,,0,,1
LEF2DISP,LEF2DISP,Salle des Fêtes,10 Rue Lazare Carnot 62790 Leforest,50.4351028558914,3.0591062763401777,,,0,,1
NOE1LLL2,NOE1LLL2,Loisinord,71 a Rue Léon Blum 62290 Nœux-les-Mines,50.47718670146936,2.6776706886753723,,,0,,0
HEN2CCRI,HEN2CCRI,Les Rivières,804 Avenue du Bord des Eaux 62110 Hénin-Beaumont,50.40811112674582,2.969698686537187,,,0,,1
NOE2CHAR,NOE2CHAR,Charcot,27 Rue Nationale 62290 Nœux-les-Mines,50.48677760227808,2.6576122336659416,,,0,,0
ROU1PTAM,ROU1PTAM,Place Tamboise,2 bis Rue Emile Dubois 62320 Rouvroy,50.40493144216675,2.907995150139279,,,0,,0
GOS1PLEP,GOS1PLEP,Place Lepillet,14 Rue Camille Deruelle 62199 Gosnay,50.50970823559559,2.583924744817012,,,0,,0
MAR1TOUL,MAR1TOUL,Toulouse,109 Rue de Lyon 62540 Marles-les-Mines,50.50405614737912,2.4968340638492905,,,0,,0
REB1CCRO,REB1CCRO,La Croix,101 Avenue du Général de Gaulle 62150 Rebreuve-Ranchicourt,50.44225056561736,2.554200535280946,,,0,,0
BUL1POST,BUL1POST,Poste,54 Rue Roger Salengro 62160 Bully-les-Mines,50.44548658166296,2.7266343355739773,,,0,,1
LIB1FAI1,LIB1FAI1,Faidherbe,104 Cite de la Gare 62820 Libercourt,50.48562087106089,3.004426467635996,,,0,,0
ROU2BFO2,ROU2BFO2,Fosse 2,316 Boulevard Fosse 2 62320 Rouvroy,50.40084948928353,2.900044946606811,,,0,,1
DIV1BODE,DIV1BODE,Bodelot,162 Rue Achille Bodelot 62460 Divion,50.464814785765405,2.495879929217368,,,0,,1
AUC1POGO,AUC1POGO,Pogon,79 Rue Georges Bernard 62260 Auchel,50.49999837250462,2.484527292293396,,,0,,0
LAP2STAD,LAP2STAD,Stade,1 Cite du Senegal 62122 Lapugnoy,50.51258933896224,2.5275332618294684,,,0,,0
AVI2CICH,AVI2CICH,Cheminots,2 a Av Theo Salingue Pere et Fils 62210 Avion,50.4136983867743,2.850900353586409,,,0,,1
COU1GARE,COU1GARE,Tilloy,20 Avenue Maurice Tilloy 62710 Courrières,50.46242632866019,2.942158748592339,,,0,,1
REB2RNAT,REB2RNAT,Mairie,40 Route Nationale 62150 Rebreuve-Ranchicourt,50.43582175870221,2.556799775119706,,,0,,0
HAI1DIDE,HAI1DIDE,Diderot,64 ter Rue du Général Koenig 62940 Haillicourt,50.48041084825344,2.590726663271297,,,0,,1
MAR1GAMB,MAR1GAMB,Gambetta,175 Boulevard Leon Gambetta 62540 Marles-les-Mines,50.49980210302488,2.49096900824974,,,0,,1
VAU2CVER,VAU2CVER,Chemin Vert,835 Rue de Béthune 62131 Vaudricourt,50.50628046278604,2.6255632690058457,,,0,,0
BRU2ADMU,BRU2ADMU,Alfred de Musset,38 Rue Alfred de Musset 62700 Bruay-la-Buissière,50.48452960206201,2.567531286840032,,,0,,0
EVI1MAIR,EVI1MAIR,Mairie,127 Rue Emile Basly 62141 Évin-Malmaison,50.43831644378226,3.0323742253316155,,,0,,1
AUC1CIME,AUC1CIME,Cimetière,20 Rue de l’Egalité 62260 Auchel,50.512129707539565,2.466919661510876,,,0,,1
LOO1GMON,LOO1GMON,Grand Mont,35 Route de Béthune 62750 Loos-en-Gohelle,50.446131380190494,2.7972048575703625,,,0,,0
BEU1BH02,BEU1BH02,Frères Robert,18 bis Route Nationale 62660 Beuvry,50.51730842962389,2.680799662912323,,,0,,1
LOI2RBOU,LOI2RBOU,Rue Bourbotte,59 Rue Georges Devouges 62218 Loison-sous-Lens,50.44743769548517,2.846018402755586,,,0,,0
DOU2COAF,DOU2COAF,Collège A.Franck,51 Rue Roger Salengro 62119 Dourges,50.42897364983304,2.991874400356855,,,0,,1
DIV2BODE,DIV2BODE,Bodelot,164 Rue Achille Bodelot 62460 Divion,50.46470714004955,2.4958655325926897,,,0,,1
AUC2LMAN,AUC2LMAN,La Manaie,9 Rue de Roncevaux 62260 Auchel,50.51629446459873,2.4812685459112203,,,0,,1
LEN2COTY,LEN2COTY,Coty,1 Rue Rene Coty 62300 Lens,50.4264787805506,2.8097924798968017,,,0,,0
GOS2PLEP,GOS2PLEP,Place Lepillet,18 Rue Camille Deruelle 62199 Gosnay,50.50997689931718,2.584165240646941,,,0,,0
AUC2SORR,AUC2SORR,Sorriaux,18 Rue Uriane Sorriaux 62260 Auchel,50.50398575380571,2.464844771092516,,,0,,0
BEU1HLEF,BEU1HLEF,Lefebvre,481 Rue Jean Jaurès 62660 Beuvry,50.52565695107506,2.6853744998373226,,,0,,0
SOU1BROS,SOU1BROS,Brossolette,18 Rue Brossolette 62153 Souchez,50.39124096653053,2.739604217997387,,,0,,0
HAS2PANI,HAS2PANI,Pré de Pâques,160 Route de Lens 62138 Douvrin,50.511975048727,2.807179554697828,,,0,,0
BIB211NO,BIB211NO,Onze Novembre,36 Rue du 11 Novembre 62138 Billy-Berclau,50.52379279174858,2.878810094169172,,,0,,1
OIG1ROSE,OIG1ROSE,Roseraie,30 Rue Jean-Jacques Rousseau 62590 Oignies,50.47094925746306,2.9897510529477263,,,0,,0
HEN2CCWA,HEN2CCWA,Wakefield,985 Avenue du Bord des Eaux 62110 Hénin-Beaumont,50.406958104723024,2.972309755784904,,,0,,1
COC2GAEA,COC2GAEA,Gare d'Eau,"D160E2, Courcelles-lès-Lens, Hauts-de-France",50.42807310313473,3.022146975940136,,,0,,0
CAR1COR,CAR1COR,Collège Rousseau,1 Esplanade Peugnet 62220 Carvin,50.49144831384189,2.946376520542968,,,0,,0
BIL1ZALC,BIL1ZALC,Le Corbusier,68 Route de Méricourt 62420 Billy-Montigny,50.4127379286814,2.8942804845115133,,,0,,0
FRE2BLEU,FRE2BLEU,Bleuets,39 Rue Jean Jaurés 62150 Fresnicourt-le-Dolmen,50.422302894096624,2.613396082805788,,,0,,1
LEN1ZACT,LEN1ZACT,Louvre-Lens,97 Rue Paul Bert 62300 Lens,50.432202426681954,2.8053230810339613,,,0,,1
COU1LBLU,COU1LBLU,Raoul Briquet,75 Rue Raoul Briquet 62710 Courrières,50.45120965187924,2.944229850691106,,,0,,1
ELE2EGLI,ELE2EGLI,Mairie,45 Rue Louis Virel 62300 Éleu-dit-Leauwette,50.41568637087097,2.816305098172506,,,0,,1
LIE1LCOR,LIE1LCOR,Les Cornailles,8 Rue Waldeck Rousseau 62800 Liévin,50.4240158390806,2.756552379280376,,,0,,1
HIN1RDRI,HIN1RDRI,Rue du Rietz,343 Rue de Merville 62232 Hinges,50.58068275747336,2.627330303309325,,,0,,0
NOE1COAF,NOE1COAF,Collège A.France,63 bis Rue Pasteur 62290 Nœux-les-Mines,50.47188734733664,2.6632670275995447,,,0,,0
CAR1BH20,CAR1BH20,Saint-Paul,2 Route d’Estevelles 62220 Carvin,50.47253914135892,2.9176917375804385,,,0,,1
BRU1EMMA,BRU1EMMA,Emmaüs,1987 Rue du Chemin des Dames 62700 Bruay-la-Buissière,50.50570955045069,2.568697735364877,,,0,,0
HEN2STHE,HEN2STHE,Birembaut,Boulevard President Salvador Allende 62640 Montigny-en-Gohelle,50.41962643949609,2.931278656700532,,,0,,1
LEN2STWA,LEN2STWA,Lyonnais,79 Rue d’Artois 62300 Lens,50.4417970553356,2.79497332497508,,,0,,0
OUR2VILL,OUR2VILL,Centre,704 Rue Alphonse Deladiennee 62460 Ourton,50.45414754323601,2.480795081812296,,,0,,1
HAR2HDV2,HAR2HDV2,Mairie,24 Grand Place 62440 Harnes,50.445432689458364,2.904451098544228,,,0,,0
AUC1RIMB,AUC1RIMB,Rimbert,2 Rue Lemaire 62260 Auchel,50.51846388345376,2.457719301048524,,,0,,1
OUR1VILL,OUR1VILL,Centre,31 Rue du Moulin 62460 Ourton,50.45464086186287,2.480922974108311,,,0,,1
GRE2DISP,GRE2DISP,Saint-Pierre,38 Rue Casimir Beugnet 62160 Grenay,50.44673481121492,2.74568369722565,,,0,,0
LEN1GA11,LEN1GA11,Gares - Quai 11,87 Rue Jean Letienne 62300 Lens,50.42723689398709,2.8270200698612284,,,0,,1
BRU1BH10,BRU1BH10,Briquet,490 Rue Raoul Briquet 62700 Bruay-la-Buissière,50.475274087044575,2.550673883255385,,,0,,1
HEN1GUYN,HEN1GUYN,Guynemer,1003 Rue Philibert Robiaud 62110 Hénin-Beaumont,50.41275715862807,2.9559677697132285,,,0,,0
HEN2GUYN,HEN2GUYN,Guynemer,994 Rue Philibert Robiaud 62110 Hénin-Beaumont,50.41292713865895,2.956068159231084,,,0,,0
LEN1GA10,LEN1GA10,Gares - Quai 10,93 bis Rue Jean Letienne 62300 Lens,50.42730956649205,2.82679604149184,,,0,,1
BEU2DISP,BEU2DISP,Gosselin,39 Rue Alfred Gosselin 62660 Beuvry,50.51810404907408,2.6850124622679727,,,0,,0
HAR2BH11,HAR2BH11,Bellevue,72 Route de Lens 62440 Harnes,50.44037149374589,2.884794417595329,,,0,,1
MON2MARC,MON2MARC,Mairie,41 Rue Roger Salengro 62640 Montigny-en-Gohelle,50.42717832407392,2.930075755007618,,,0,,0
DIV1JGUE,DIV1JGUE,Jules Guesde,96 Rue Jules Guesde 62460 Divion,50.47395923616982,2.494306130676494,,,0,,0
LIE2FCHA,LIE2FCHA,Four à Chaux,7 Rue Thiers 62800 Liévin,50.41477153004684,2.785248309387145,,,0,,0
DIV1ALLE,DIV1ALLE,Bois du Rietz,59 Rue Danielle Casanova 62460 Divion,50.48244322027806,2.5037256287044785,,,0,,1
CAC2PAST,CAC2PAST,Rue Pasteur,128 Rue Anatole France 62470 Camblain-Châtelain,50.48036683905643,2.4613820053842006,,,0,,1
CAR1CHGU,CAR1CHGU,Berlioz,1178 Rue de Buqueux 62220 Carvin,50.49279047270742,2.973720324572396,,,0,,0
BRU1IMPO,BRU1IMPO,C. des Impôts,648 Rue de la République 62700 Bruay-la-Buissière,50.47800709195833,2.536653581052017,,,0,,0
NOL2PTT_,NOL2PTT_,Poste,170 Rue Jean Jaures 62221 Noyelles-sous-Lens,50.42885294528976,2.876156577977776,,,0,,0
LAP18MAI,LAP18MAI,Cité du 8 Mai,37 b Rue Jules Ferry 62122 Lapugnoy,50.52158282090177,2.5523064712555743,,,0,,0
BRU1HDV2,BRU1HDV2,Hôtel de Ville,262 Rue Charles Marlard 62700 Bruay-la-Buissière,50.48350798237234,2.5467716747481672,,,0,,0
ESC2HDE2,ESC2HDE2,Haut d'Estrée,19 b Chaussée Brunehaut 62690 Estrée-Cauchy,50.39637737011433,2.610881300453628,,,0,,1
BUL1JAUR,BUL1JAUR,Jaurès,186 Rue Jean Jaurès 62160 Bully-les-Mines,50.43705263265252,2.717999209657836,,,0,,1
BET2MANE,BET2MANE,Popieluszko,1546 Rue Copernic 62400 Béthune,50.51463169724058,2.648222409986785,,,0,,0
LOO1SROC,LOO1SROC,Saint-Roch,6 Rue des Tulipes 62750 Loos-en-Gohelle,50.458573607796055,2.800228253597312,,,0,,0
HES1BH22,HES1BH22,8 mai 1945,1 Rue du 4 Septembre 62196 Hesdigneul-lès-Béthune,50.50239427662479,2.5894170538478183,,,0,,1
MAZ2RDEC,MAZ2RDEC,Décatoire,15 Rue Alphonse Decatoire 62670 Mazingarbe,50.47311755674801,2.7191024180489776,,,0,,1
OIG1CROM,OIG1CROM,Crombez,13 Rue Henriette Crombez 62590 Oignies,50.46973534658941,2.9919423958905056,,,0,,0
AIX1LANT,AIX1LANT,Lantoine,30 Rue Lantoine 62160 Aix-Noulette,50.42324209977962,2.712754084939611,,,0,,1
LEN2BH02,LEN2BH02,Bollaert Delelis,2 Rue Edouard Bollaert 62300 Lens,50.43248707254563,2.8221827493826592,,,0,,1
SAY2LPRE,SAY2LPRE,Les Près,172 ter Route Nationale 62113 Sailly-Labourse,50.50502000503624,2.689423362164172,,,0,,0
MAZ2PYSE,MAZ2PYSE,Yser,4 Place de l’Yser 62670 Mazingarbe,50.46361181677858,2.708783152552128,,,0,,1
LEN2LYON,LEN2LYON,LENS - Robespierre,,50.438790812923926,2.795100454803052,,,0,,0
LIB1PVER,LIB1PVER,Place de Verdun,17 Rue du 8 Mai 62820 Libercourt,50.482705956760746,3.0124732426228253,,,0,,0
VEN2EDOL,VEN2EDOL,EHPAD,31 Route de Wingles 62880 Vendin-le-Vieil,50.47805857307355,2.859194199362189,,,0,,0
FOU1JGUE,FOU1JGUE,Guesde,21 bis Rue Jules Guesde 62740 Fouquières-lès-Lens,50.42411857414984,2.91499711195283,,,0,,0
BET2MICH,BET2MICH,Michelet,45 Avenue de Lens 62400 Béthune,50.52342305580164,2.644899482440446,,,0,,0
HUL2MARA,HUL2MARA,Maraîchon,81 Rue Pierre Malvoisin 62410 Hulluch,50.47937044952575,2.81446680217904,,,0,,0
LAP1MEVE,LAP1MEVE,Mont Eventé,1 Rue du 11 Novembre 62122 Lapugnoy,50.51054217531111,2.522741972929828,,,0,,0
LEF1OFFL,LEF1OFFL,Offlarde,5 Rue d’Amiens 62790 Leforest,50.44310121127647,3.058476614494964,,,0,,1
VEQ1SDFE,VEQ1SDFE,Salle des Fêtes,26 Rue Jean Jaures 62131 Verquin,50.50339736356894,2.6418224660276963,,,0,,0
LOI2LAZA,LOI2LAZA,Azalées,78 Route de Lens 62218 Loison-sous-Lens,50.43803760764662,2.853903023359589,,,0,,1
FOU2ALLA,FOU2ALLA,EHPAD,27 Rue du Général Leclerc 62740 Fouquières-lès-Lens,50.42411666455006,2.9038310888150174,,,0,,0
MAR2LYON,MAR2LYON,Lyon,166 Rue de Lyon 62540 Marles-les-Mines,50.505929288591176,2.498303084420065,,,0,,0
HOU2BRUN,HOU2BRUN,Rue de Villejuif,30 Rue du Fond Madame 62150 Houdain,50.45045473679836,2.524740159454506,,,0,,0
CAT1RFLO,CAT1RFLO,Floringhem,20 Rue de Floringhem 62260 Cauchy-à-la-Tour,50.5004977084076,2.443975533546071,,,0,,1
HOU1BRUN,HOU1BRUN,Rue de Villejuif,30 Rue du Fond Madame 62150 Houdain,50.450445850236974,2.524683916976025,,,0,,0
BRU2RDVI,BRU2RDVI,Viveret,996 Rue Pierre Brossolette 62700 Bruay-la-Buissière,50.498052366742336,2.5613763639731686,,,0,,0
LOO2ELAM,LOO2ELAM,Ecole Lamendin,170 Rue Jules Supervielle 62750 Loos-en-Gohelle,50.45172075128176,2.764962608965221,,,0,,1
CAR2NDAM,CAR2NDAM,Notre Dame,26 Avenue Montaigne 62220 Carvin,50.48940145577251,2.9429904510945977,,,0,,0
HAI2EGD6,HAI2EGD6,Eglise du 6,108 bis Avenue des Fleurs 62940 Haillicourt,50.46902268678845,2.559658171219992,,,0,,0
BRU2BOUR,BRU2BOUR,Bourbonnais,62 Rue du Bourdonnais 62700 Bruay-la-Buissière,50.47626916064363,2.556245706137451,,,0,,0
BRU1PERN,BRU1PERN,Pernes,1264 Rue Emile Basly 62700 Bruay-la-Buissière,50.491193209352446,2.526819203370183,,,0,,0
WIN2LAME,WIN2LAME,Lamendin,26 Rue Arthur Lamendin 62410 Wingles,50.49326886465494,2.8521233356809432,,,0,,0
ANG1PMAI,ANG1PMAI,Mairie,87 bis Route de Souchez 62143 Angres,50.40829399679407,2.7570389301198275,,,0,,0
RUI1PLAC,RUI1PLAC,Mairie,4 Rue de Maisnil 62620 Ruitz,50.46722649392212,2.5885796070202334,,,0,,1
ANG1LECL,ANG1LECL,Leclerc,38 Rue Marcel Leclerc 62143 Angres,50.41437697383132,2.7572021121692964,,,0,,0
OIG2CASE,OIG2CASE,Sembat,31 Rue Marcel Sembat 62590 Oignies,50.46994483017502,2.999747451316692,,,0,,0
LEN1KENN,LEN1KENN,Van Pelt,112 Avenue Alfred Van Pelt 62300 Lens,50.43076292668252,2.840413212942272,,,0,,0
BAJ1MAIR,BAJ1MAIR,Mairie,4 Grande Rue 62150 Bajus,50.42150449202243,2.482232598087937,,,0,,1
ROU1PERC,ROU1PERC,Mairie,6 Rue du Marechal Foch 62320 Rouvroy,50.39428940282193,2.9041263995932067,,,0,,0
VEQ1POST,VEQ1POST,Poste,66 a Rue Fernand Desmazieres 62131 Verquin,50.50053067646946,2.6364316766307345,,,0,,0
OIG1CLIN,OIG1CLIN,Mermoz,9 Avenue Mermoz 62820 Libercourt,50.47260476872595,2.9922610267292087,,,0,,0
CAR2ORA1,CAR2ORA1,Oran,Route d’Estevelles 62220 Carvin,50.473051519793486,2.917486781678279,,,0,,0
BAU1MAIR,BAU1MAIR,Mairie,25 Rue Jean Jaures 59221 Bauvin,50.51501908578629,2.896782103771855,,,0,,0
HIN2MAIR,HIN2MAIR,Mairie,226 Rue du 8 Mai 1945 62232 Hinges,50.5668466473786,2.6209963718590257,,,0,,0
AUC2BH04,AUC2BH04,Mairie 2,1 Residence Jean Moulin 62260 Auchel,50.50493257922897,2.468800169029149,,,0,,1
MAZ2BAIL,MAZ2BAIL,Bailleux,35 Rue Lamartine 62670 Mazingarbe,50.46671384363128,2.709551145645816,,,0,,1
LIE2WROU,LIE2WROU,Waldeck-Rousseau,54 Rue Waldeck Rousseau 62800 Liévin,50.42358775627417,2.7636274682871025,,,0,,1
LEN1RSEL,LEN1RSEL,Sellier,131 c Rue Roger Salengro 62300 Éleu-dit-Leauwette,50.42366569411669,2.811001970712464,,,0,,1
CAM1MAIR,CAM1MAIR,Mairie,73 Boulevard Louis Lesage 62149 Cambrin,50.511645636674906,2.740612919596753,,,0,,1
BEU1CENT,BEU1CENT,Ampère,8 Zone Industrielle du Moulin 62660 Beuvry,50.51078749166682,2.6835266256330743,,,0,,0
LIE1LIBE,LIE1LIBE,Liberté,Rue de la Liberté 62800 Liévin,50.43774835772325,2.7758438790141664,,,0,,0
WIN1PJAU,WIN1PJAU,Mairie,39 bis Rue Jules Guesde 62410 Wingles,50.494999254776175,2.854546232500983,,,0,,0
LIE1CICH,LIE1CICH,Chouard,84 Rue Claude Debussy 62800 Liévin,50.43539523866401,2.771440256053352,,,0,,1
SOU2JAUR,SOU2JAUR,Jaurès,31 Rue Jean Jaurés 62153 Souchez,50.39580738826471,2.7479929112862607,,,0,,0
MEU1PONT,MEU1PONT,Thomas,11 Rue Albert Thomas 62410 Meurchin,50.497124982235896,2.883782596632188,,,0,,0
MAZ1CIT2,MAZ1CIT2,Cité 2,26 Boulevard Arthur Lamendin 62670 Mazingarbe,50.4635732210341,2.712634242588294,,,0,,1
AUC1AFRA,AUC1AFRA,Anatole France,67 Rue Arthur Lamendin 62260 Auchel,50.51702430049231,2.4526925065618697,,,0,,1
AUC1PDMA,AUC1PDMA,Séraphin Cordier,46 Rue Roger Salengro 62260 Auchel,50.50238230470083,2.470987907591463,,,0,,1
VAU1CVER,VAU1CVER,Chemin Vert,750 Rue de Béthune 62131 Vaudricourt,50.50486422227477,2.625020553735068,,,0,,0
MAZ1RDEC,MAZ1RDEC,Décatoire,26 Rue Alphonse Decatoire 62670 Mazingarbe,50.47319751812838,2.7193560855137977,,,0,,1
BRU1PEU1,BRU1PEU1,Europe - Quai 2,239 Rue Henri Cadot 62700 Bruay-la-Buissière,50.48103858911114,2.5480268404219726,,,0,,1
HAR2CBOU,HAR2CBOU,Stade Bouthemy,99 Avenue Henri Barbusse 62440 Harnes,50.45019860965842,2.898237515745792,,,0,,0
LIB3GARE,LIB3GARE,Gare - Quai 3,3 Contour de la Gare 62820 Libercourt,50.48021607320744,3.0083901125157,,,0,,1
NOG2PABO,NOG2PABO,Parc à Bois,79 Rue Victor Hugo 62950 Noyelles-Godault,50.41693296875951,2.993402654413188,,,0,,0
BIL2SLAN,BIL2SLAN,Fosse 10,18 Rue d’Annecy 62420 Billy-Montigny,50.41238766272444,2.9080517957535896,,,0,,0
HAS2CDEA,HAS2CDEA,Château d'Eau,71 Rue du 8 Mai 62138 Haisnes,50.50865789338839,2.792207342376112,,,0,,0
ANG2RSOU,ANG2RSOU,Maisonneraie,1 Maisonneraie Bois des Bruyeres 62143 Angres,50.40088226536849,2.754450047575459,,,0,,1
BRU1PEG2,BRU1PEG2,Pégoud,128 Rue Roland Garros 62700 Bruay-la-Buissière,50.46769210391391,2.545834080196593,,,0,,0
HEN1EGRU,HEN1EGRU,Gruyelle,481 d Rue Elie Gruyelle 62110 Hénin-Beaumont,50.42157239417709,2.9551915721337725,,,0,,1
SAV2HOPI,SAV2HOPI,Hôpital,,50.61724269672479,2.538985180430681,,,0,,1
ROB1STAD,ROB1STAD,Stade,,50.59756764783286,2.561624818385928,,,0,,0
SAV2EGLI,SAV2EGLI,Eglise,14 Rue de l’Egalité 62350 Saint-Venant,50.62360973215655,2.550714690221324,,,0,,0
BIL2PAUR,BIL2PAUR,Léon Delfosse,41 Avenue de la République 62420 Billy-Montigny,50.419812492066455,2.903234807869709,,,0,,1
HUL1LRAY,HUL1LRAY,La Rayère,42 Rue de la Rayère 62410 Hulluch,50.48845176078071,2.82548032988678,,,0,,0
DOU1DLJA,DOU1DLJA,Les Jardins,61 Rue de la Fraternité 62119 Dourges,50.43635625225619,2.983752114013939,,,0,,1
HOU2BH01,HOU2BH01,Marronniers,1 Avenue Georges Clemenceau 62150 Houdain,50.46032613810388,2.551017902435396,,,0,,1
NOY2LCDB,NOY2LCDB,Le Clos du Bois,38 bis Rue de Vermelles 62980 Noyelles-lès-Vermelles,50.49149189315075,2.7333484910703847,,,0,,1
LEN2ZACT,LEN2ZACT,Louvre-Lens,208 Rue Paul Bert 62300 Lens,50.43221989020766,2.805449670705252,,,0,,1
NOG1CALV,NOG1CALV,Talman,22 Rue Jules Ferry 62950 Noyelles-Godault,50.42026958324216,2.9969994672358014,,,0,,1
NOG1CC2A,NOG1CC2A,Europe - Quai 4,737 Avenue du Bord des Eaux 62110 Hénin-Beaumont,50.409214976308384,2.9766068172766604,,,0,,1
BEU1BAL2,BEU1BAL2,Ballon,205 Route de Lens 62660 Beuvry,50.51413861326104,2.681833205292499,,,0,,1
AVI1VOLT,AVI1VOLT,Voltaire,184 Rue Aime Cesaire 62210 Avion,50.42100803220279,2.8429979372751943,,,0,,1
CAR1PLAN,CAR1PLAN,Robespierre,909 Rue de Buqueux 62220 Carvin,50.49474010763118,2.971452454031228,,,0,,0
AUC1BH02,AUC1BH02,Brassens,87 Boulevard Emile Basly 62260 Auchel,50.510106071240415,2.463143928143504,,,0,,1
HEN2GAUM,HEN2GAUM,Rufisque,1275 Avenue du Bord des Eaux 62110 Hénin-Beaumont,50.40655630419672,2.975393577756897,,,0,,0
HEN2MICH,HEN2MICH,Michelet,448 Rue Pierre Brossolette 62110 Hénin-Beaumont,50.41123422104128,2.944673494359875,,,0,,1
HOH2CALV,HOH2CALV,Egalité,30 Rue de Barlin 62620 Houchin,50.4812114622544,2.622578837200784,,,0,,0
MER1LPAR,MER1LPAR,Le Parc,33 Rue Frèdèric Ozanam 62680 Méricourt,50.40138382407173,2.8850433410437115,,,0,,0
EVI2BIZE,EVI2BIZE,Bizet,266 Rue Georges Bizet 62141 Évin-Malmaison,50.440444956492136,3.0288349949828124,,,0,,0
MAI2PVER,MAI2PVER,Place Verte,62 a Rue d’Houdain 62620 Maisnil-lès-Ruitz,50.45361206966375,2.5904086115088423,,,0,,0
GRE2VEDR,GRE2VEDR,Védrines,62 Rue Napoléon Lebacq 62160 Grenay,50.45360607523576,2.7379540647593776,,,0,,0
LEN1ROBE,LEN1ROBE,Robespierre,2 Rue Jean Monnet 62300 Lens,50.43952921866989,2.796793125476434,,,0,,1
CAT2FLOR,CAT2FLOR,Floringhem,20 Rue de Floringhem 62260 Cauchy-à-la-Tour,50.50042621557103,2.443651856405271,,,0,,1
DOV2PDLB,DOV2PDLB,Pt. De la Bassée,20 Route de Lens 62138 Douvrin,50.526181634703065,2.8035832465710304,,,0,,0
BET1MAIN,BET1MAIN,Centre Sportif,229 Rue Fernand Bar 62400 Béthune,50.53340415600052,2.6355582372120034,,,0,,0
MAR1CIME,MAR1CIME,Cimetière,2 bis Rue Louis Pasteur 62540 Marles-les-Mines,50.50184509721687,2.506589329064879,,,0,,1
COU2CBEU,COU2CBEU,Beugnet,29 bis Rue Casimir Beugnet 62710 Courrières,50.45132070333366,2.939888834795595,,,0,,1
HER1MAIR,HER1MAIR,Mairie,12 Rue Emile Basly 62530 Hersin-Coupigny,50.44872027783598,2.649823426388905,,,0,,0
BEU2CAL2,BEU2CAL2,Calvaire,69 Route Nationale 62660 Beuvry,50.51948728835306,2.6780002451524925,,,0,,1
NOE2CDLO,NOE2CDLO,Parc Voltaire,101 Rue Jean Jaurès 62290 Nœux-les-Mines,50.47502838483648,2.656089088159934,,,0,,1
LLS2LYFT,LLS2LYFT,Lycée F. Tristan,54 Avenue du Général de Gaulle 62190 Lillers,50.56002611471024,2.4757329282085623,,,0,,1
LLS2LYAF,LLS2LYAF,Lycée A.France,,50.55599569550699,2.4779326449025985,,,0,,1
CAS2RDLG,CAS2RDLG,Rue de la Gare,385 Rue de la Gare 62350 Calonne-sur-la-Lys,50.62523898801032,2.6074095522511858,,,0,,0
ALL2PREI,ALL2PREI,Réveillon,95 Rue du Marais 62157 Allouagne,50.54223350979175,2.5313202455283665,,,0,,0
ALL1REAU,ALL1REAU,Eauririe,11 Rue l’Eauririe 62157 Allouagne,50.53422302196629,2.5128639687790946,,,0,,0
CHO2ECGA,CHO2ECGA,Ecole de Garçons,55 Rue de Lillers 62920 Chocques,50.53981815302463,2.5689397892632777,,,0,,0
BET1HOLL,BET1HOLL,Victor Hugo,2 Boulevard de Hollande 62400 Béthune,50.51987946839549,2.626316954742374,,,0,,0
CAR2EGL1,CAR2EGL1,Eglise,96 Rue Salvador Allende 62220 Carvin,50.49720495282702,2.959612068350756,,,0,,0
REB2ADGA,REB2ADGA,De Gaulle,29 Avenue du Général de Gaulle 62150 Rebreuve-Ranchicourt,50.44495251549139,2.548296829093866,,,0,,1
FOL2GARE,FOL2GARE,Rue de Gaulle,69 bis Rue du Général de Gaulle 62232 Fouquereuil,50.524583233865656,2.60523434927846,,,0,,0
LEN2BH08,LEN2BH08,Halle Tetelin,7 bis Rue Alain 62300 Lens,50.44391364278921,2.830063196291137,,,0,,1
VIO1RDCH,VIO1RDCH,Rue des Chênes,16 Rue des Chênes 62138 Violaines,50.5412027928479,2.7858018249238903,,,0,,1
COU1CODE,COU1CODE,Collège Debussy,59 Rue Arthur Lamendin 62710 Courrières,50.45333296219079,2.9502985439987097,,,0,,1
AUC2CVIL,AUC2CVIL,Front Populaire,18 Avenue Andre Malraux 62260 Auchel,50.50362734991364,2.4728199659445265,,,0,,1
BAU1MARA,BAU1MARA,Marais,15 Rue Jules Guesde 59221 Bauvin,50.517468026004046,2.892883518377828,,,0,,0
CAR1EPIN,CAR1EPIN,Epinoy,150 Rue Florent Evrard 62220 Carvin,50.484706333084425,2.9435524796119634,,,0,,0
BAR2FOS7,BAR2FOS7,Fosse 7,294 Rue d’Houdain 62620 Barlin,50.4525076451276,2.5951388784543745,,,0,,0
HAR1REPU,HAR1REPU,Valmy,6 bis Rue de Valmy 62440 Harnes,50.45251522092492,2.9056835146736684,,,0,,0
OIG2CASQ,OIG2CASQ,Jaurès,9 Rue Jean Jaurès 62590 Oignies,50.46745931217013,2.993079467974336,,,0,,1
LIE2BH01,LIE2BH01,Université,13 Chemin du Marquage 62800 Liévin,50.40901408780461,2.771886175740588,,,0,,1
SAI1CARC,SAI1CARC,Carcassonne,2 Rue de Toulouse 62114 Sains-en-Gohelle,50.44033034949154,2.6836447021633734,,,0,,0
LIE1COCU,LIE1COCU,Montcalm,135 bis Rue Jules Guesde 62800 Liévin,50.43359221949587,2.781370492461236,,,0,,0
SAL2FO13,SAL2FO13,Laon 2,94 Rue Constant Darras 62430 Sallaumines,50.4228866724777,2.850853892221686,,,0,,1
MAR2MAUB,MAR2MAUB,Rue de Douai,11 Rue de Douai 62540 Marles-les-Mines,50.49961319066266,2.4913763456485576,,,0,,0
FOU2CAR2,FOU2CAR2,Carnot,63 Rue du Général Leclerc 62740 Fouquières-lès-Lens,50.42202373413327,2.8984564478556827,,,0,,0
MER1MEME,MER1MEME,Chem. des Lapins,6 Avenue du 10 Mars 62680 Méricourt,50.40313746200922,2.871921604348302,,,0,,1
CAR1PGAM,CAR1PGAM,Gambetta,50 Rue Florent Evrard 62220 Carvin,50.48622350357887,2.948816220941532,,,0,,0
CHO1DISP,CHO1DISP,Dr Chauvaux,1 Rue du Bottiau 62920 Chocques,50.53622847855387,2.564770648619086,,,0,,0
DOV2PTHO,DOV2PTHO,Place Thomas,68 Impasse des 4 Vents 62138 Douvrin,50.51207032814211,2.8332377626020704,,,0,,0
VEB2MAYE,VEB2MAYE,Mayeux,163 Rue Leger Mayeux 62232 Vendin-lès-Béthune,50.54260664990577,2.605133680061813,,,0,,0
AUM2DETE,AUM2DETE,Rue du Calvaire,13 Route Nationale 41 62138 Auchy-les-Mines,50.51725340063897,2.7771728612934865,,,0,,0
DIV1DES2,DIV1DES2,Place Viseur,Place des Fréres Viseur 62460 Divion,50.473984825540136,2.488190588481327,,,0,,0
BRU2SEIN,BRU2SEIN,Seine,64 Rue de Verdun (Bruay-en-Artois) 62700 Bruay-la-Buissière,50.486687776251145,2.5599615121595214,,,0,,0
LOO1MIR2,LOO1MIR2,Mirabeau,59 Rue Roger Salengro 62750 Loos-en-Gohelle,50.45459083049325,2.7951883968683564,,,0,,0
LIE1CIMN,LIE1CIMN,Cimetière Nord,50 Rue Pasteur 62800 Liévin,50.43142690054673,2.7618679108901736,,,0,,0
BET2HOLL,BET2HOLL,Victor Hugo,12 Boulevard des Etats-Unis 62400 Béthune,50.51993336206241,2.626289121892021,,,0,,0
LEN2PARC,LEN2PARC,P Louvre-Lens Q2,57 Rue du Temple 62300 Lens,50.430030223901824,2.8125650356473404,,,0,,1
LOO1PALI,LOO1PALI,Palissy,142 Rue Roger Salengro 62750 Loos-en-Gohelle,50.45013715342311,2.798506289608792,,,0,,0
LOI2PLOI,LOI2PLOI,Pont de Loison,Loison-sous-Lens,50.44578754647395,2.8608117242062217,,,0,,0
MAI2PDRA,MAI2PDRA,Parc d'Olhain,,50.44453791353628,2.573993785877898,,,0,,0
LOZ1PCLE,LOZ1PCLE,Place Cléry,109 Rue Joseph Carlier 62540 Lozinghem,50.51552167757185,2.5036385072445024,,,0,,0
FRE2SALE,FRE2SALE,Salengro,25 Rue Roger Salengro 62150 Fresnicourt-le-Dolmen,50.42696962771368,2.616919151237839,,,0,,1
HEN2JVER,HEN2JVER,A. Schweitzer,320 Boulevard Albert Schweitzer 62110 Hénin-Beaumont,50.41976439485518,2.96317448084676,,,0,,1
LIE1LOUV,LIE1LOUV,Louvre-Lens,105 Rue du 14 Juillet 62800 Liévin,50.42660208935968,2.7937673223696646,,,0,,0
HAR2BH01,HAR2BH01,Grand Moulin,21 Rue de Saint Druon 62440 Harnes,50.448859428253165,2.912345011059525,,,0,,1
HAI1HORT,HAI1HORT,Hortensias,800 Rue Emile Zola 62940 Haillicourt,50.46835221683434,2.5680896118472774,,,0,,0
HEN1BODE,HEN1BODE,Bord des Eaux,753 Boulevard Jacques Piette 62110 Hénin-Beaumont,50.41292725457952,2.966655999060955,,,0,,1
OIG1COPA,OIG1COPA,Collège Pasteur,7 Avenue Mermoz 62820 Libercourt,50.47447802925096,2.990935777061377,,,0,,0
SAL1DUT2,SAL1DUT2,Touquet,36 Rue du Portel 62430 Sallaumines,50.412172619035445,2.872045869882687,,,0,,0
COU1CHAU,COU1CHAU,Chinon,253 Route d’Harnes 62710 Courrières,50.44769534280415,2.9251470005351687,,,0,,0
HEN2BH10,HEN2BH10,Mairie - Quai 2,25 Rue des Girondins 62110 Hénin-Beaumont,50.41855600009874,2.9465034835771333,,,0,,1
MAZ1PAS2,MAZ1PAS2,Jean Jaurès,75 Rue Alphonse Decatoire 62670 Mazingarbe,50.47599459893684,2.722934473666406,,,0,,0
EVI1MALM,EVI1MALM,Malmaison,32 Rue Emile Basly 62141 Évin-Malmaison,50.4392664924906,3.0420254818457777,,,0,,0
NOG2ASSE,NOG2ASSE,P.A du Quiéry,35 Rue de Beaumont 62950 Noyelles-Godault,50.41163874863991,2.9866776259545578,,,0,,0
DRO1LANV,DRO1LANV,Lanvin,8 Rue d’Aquitaine 62320 Drocourt,50.38718469151345,2.9209583874803893,,,0,,0
COU1BDLE,COU1BDLE,Lepoivre,16 Rue Pasteur 62710 Courrières,50.45874582369607,2.942536027785123,,,0,,1
HAI1FOS2,HAI1FOS2,Fosse 2,23 d Rue de la Libération 62940 Haillicourt,50.47785399273535,2.581785623115032,,,0,,0
NOE2LLLA,NOE2LLLA,Loisinord,71 a Rue Léon Blum 62290 Nœux-les-Mines,50.47731215081637,2.677727779851612,,,0,,0
LIE1FOUG,LIE1FOUG,Les Fougères,128 Rue Pasteur 62800 Liévin,50.43251906019697,2.7677489907454547,,,0,,0
LIE1RIAU,LIE1RIAU,Rue Thiers,159 Rue Thiers 62800 Liévin,50.419795897493344,2.7974973138711765,,,0,,0
NOL2AMP2,NOL2AMP2,Ampère,336 Rue de Courtaigne 62221 Noyelles-sous-Lens,50.427173626440286,2.880563075285771,,,0,,0
HEN2STAD,HEN2STAD,Ballekens,475 Rue du Général de Gaulle 62110 Hénin-Beaumont,50.38772451624642,2.9696526309549083,,,0,,0
BAR2RVHO,BAR2RVHO,Vieil Houdain,2 Rue du Vieil Houdain 62620 Barlin,50.443741599814935,2.607753325696815,,,0,,0
VEN2CIME,VEN2CIME,République,121 Rue du 8 Mai 1945 62880 Vendin-le-Vieil,50.45501005198622,2.848259470453928,,,0,,0
MON2VARS,MON2VARS,Varsovie,5 Rue de Varsovie 62640 Montigny-en-Gohelle,50.42474774578376,2.927996417419243,,,0,,0
BRU1BH06,BRU1BH06,Porte Nord CCial,153 Rue Christophe Colomb 62700 Bruay-la-Buissière,50.494952790461866,2.573317601796962,,,0,,1
LIE2COCU,LIE2COCU,Montcalm,135 bis Rue Jules Guesde 62800 Liévin,50.43363748616131,2.781258510507035,,,0,,0
MON1BOUI,MON1BOUI,Collège Gagarine,51 Rue Suzanne Lannoy 62640 Montigny-en-Gohelle,50.430370134477,2.932445255749387,,,0,,0
REB1ADGA,REB1ADGA,De Gaulle,27 Avenue du Général de Gaulle 62150 Rebreuve-Ranchicourt,50.444934932234105,2.5480859933428848,,,0,,1
BUR1CORO,BUR1CORO,Corons Martin,,50.53221494812664,2.459666593758403,,,0,,1
CHO2LCRO,CHO2LCRO,Le Croquet,121 Rue de Béthune 62920 Chocques,50.53999553685424,2.5793438571675544,,,0,,1
NOG2BH01,NOG2BH01,Mozart,94 Chemin des Croix 62950 Noyelles-Godault,50.41828120572122,2.9862017754568915,,,0,,1
BET1CLEB,BET1CLEB,Clemenceau Q2,3 Place Georges Clemenceau 62400 Béthune,50.52926500316269,2.6406285586802856,,,0,,0
BET1CLEA,BET1CLEA,Clemenceau Q1,95 Avenue Jean Jaures 62400 Béthune,50.52975886688653,2.6404485788874457,,,0,,0
MAZ1PASC,MAZ1PASC,Dutouquet,84 Rue Dutouquet 62670 Mazingarbe,50.461061825030576,2.7211049260092337,,,0,,0
BET2LIBE,BET2LIBE,Liberté,11 Rue de la Liberté 62400 Béthune,50.511784649156176,2.649442869731634,,,0,,0
LBS1ZINB,LBS1ZINB,ZI N°1,449 Rue Lavoisier 62113 Labourse,50.48482979493806,2.6780178729385606,,,0,,0
COU2CHAU,COU2CHAU,Chinon,247 Route d’Harnes 62710 Courrières,50.447756199714064,2.925555219126547,,,0,,0
OIG1CIVE,OIG1CIVE,Métaphone,25 Rue du Tordoir 62590 Oignies,50.46008724552778,2.987403086497236,,,0,,1
COU2MOU2,COU2MOU2,Rue Jean Jaurès,2 Rue Jean Jaurès 62710 Courrières,50.45612450284416,2.944640659707813,,,0,,1
BAR2FETE,BAR2FETE,Mairie,15 Rue du Docteur Capiaux 62620 Barlin,50.458031390332245,2.617106321022114,,,0,,1
BET2SULL,BET2SULL,Sully,592 Avenue Sully 62400 Béthune,50.53122580488901,2.627339520753901,,,0,,0
CUI1MAIR,CUI1MAIR,Mairie,5 Rue Anatole France 62149 Cuinchy,50.52114895975444,2.7480070094570923,,,0,,1
DRO2RPAL,DRO2RPAL,Palma,3 Rue de Savoie 62320 Drocourt,50.39010200359576,2.9207396315472764,,,0,,0
LIE1PSIM,LIE1PSIM,Simon,29 Rue Dutemple 62800 Liévin,50.431100266422206,2.7524114728112137,,,0,,0
VIM2VHUG,VIM2VHUG,Mairie,6 Rue Victor Hugo 62580 Vimy,50.37317646499085,2.810596271455277,,,0,,1
AUC2EVR2,AUC2EVR2,Evrard,88 Rue Florent Evrard 62260 Auchel,50.504439665275655,2.476493763811916,,,0,,1
VIM1VHUG,VIM1VHUG,Mairie,2 Rue Victor Hugo 62580 Vimy,50.373772833584965,2.809521492611016,,,0,,1
HAR2BH14,HAR2BH14,Mairie,7 bis Grand Place 62440 Harnes,50.444621152920334,2.903374050345,,,0,,1
LIE1BERL,LIE1BERL,Blanqui,12 Rue Georges Carpentier 62800 Liévin,50.41739314844123,2.764628118771291,,,0,,0
CUI2ZOL2,CUI2ZOL2,Zola,87 Rue Emile Basly 62149 Cuinchy,50.51356304259344,2.7521799591919587,,,0,,0
AUC2BASL,AUC2BASL,Basly,2 bis Boulevard Emile Basly 62260 Auchel,50.50619927692432,2.46718568096097,,,0,,1
LIE2ALSA,LIE2ALSA,Alsace,221 Rue d’Artois 62800 Liévin,50.43707391997401,2.783747438457433,,,0,,0
COU1ROTO,COU1ROTO,Rotois,93 Rue Roger Salengro 62710 Courrières,50.459732057062205,2.955324199702697,,,0,,1
LIE2AFPA,LIE2AFPA,A.F.P.A.,47 Cite Leon Blum 62800 Liévin,50.42281571516104,2.7937469442660805,,,0,,1
NOE2LAVI,NOE2LAVI,La Vicoigne,401 c Rue Nationale 62290 Nœux-les-Mines,50.46901080323654,2.672006222117817,,,0,,1
LIE1CLIN,LIE1CLIN,Clinique,Rue d’Entre Deux Monts 62800 Liévin,50.41882284363323,2.783978390014775,,,0,,0
COU2CCUL,COU2CCUL,Centre Culturel,106 Rue Aristide Briand 62710 Courrières,50.4523609202323,2.9381727794717727,,,0,,0
LIE2PAST,LIE2PAST,Louis Pasteur,184 Rue Pasteur 62800 Liévin,50.43310617999143,2.771743554948877,,,0,,0
HAS1MAPA,HAS1MAPA,Les Héliantines,20 Rue Georges Brassens 62138 Haisnes,50.50604992909397,2.8034662963540264,,,0,,0
DIV2LEGA,DIV2LEGA,Legay,1 Rue du Docteur Charles Legay 62460 Divion,50.4790479034786,2.485773388621877,,,0,,1
LEF1LPLA,LEF1LPLA,Le Planty,1 Rue de Montsalvy 62790 Leforest,50.4376533865153,3.070860071729508,,,0,,0
OIG1BONN,OIG1BONN,Rue des Pensées,29 Rue des Pensées 62590 Oignies,50.45913850277353,2.9920430641331435,,,0,,0
WIN1LAME,WIN1LAME,Lamendin,20 Rue Arthur Lamendin 62410 Wingles,50.49347673586181,2.85175978957212,,,0,,0
MAR1VAM2,MAR1VAM2,Vis-à-Marles,2 Rue des Résistants 62540 Marles-les-Mines,50.50624615822514,2.51576243606722,,,0,,0
HIN2RDME,HIN2RDME,Ch. des Anglais,1106 Rue de Merville 62232 Hinges,50.58698406962628,2.629466347204616,,,0,,0
HAI1ZOLA,HAI1ZOLA,Zola,250 Rue Emile Zola 62940 Haillicourt,50.4706459236402,2.5744543828238453,,,0,,0
BIL2CIPI,BIL2CIPI,Pierrard,163 Rue du Château d’Eau 62680 Méricourt,50.4125987947931,2.88731408977859,,,0,,0
LIE1ESPE,LIE1ESPE,Espérance,1 Rue Paul Courtin 62800 Liévin,50.42775984053669,2.750529763874488,,,0,,1
LIB2GARG,LIB2GARG,Garguetelles,141 Cite Bonnier Bernat 62820 Libercourt,50.47378048298484,3.013773084265304,,,0,,0
BEU2SQMA,BEU2SQMA,Square Martyrs,319 Rue Jacques Morat 62660 Beuvry,50.53383356620508,2.687218945738043,,,0,,0
CAR1EGLI,CAR1EGLI,Eglise,2 Place Jules Guesde 62220 Carvin,50.49773440342981,2.959590508959824,,,0,,0
CUI2MAIR,CUI2MAIR,Mairie,12 ter Rue Anatole France 62149 Cuinchy,50.52064675965505,2.747946604338253,,,0,,1
HER1TIRT,HER1TIRT,Tirtaine,4 Rue Emile Zola 62530 Hersin-Coupigny,50.44324191704455,2.6447873785988447,,,0,,0
LEN14SEP,LEN14SEP,4 septembre,38 Avenue du 4 Septembre 62300 Lens,50.43222774469631,2.830987997933867,,,0,,0
CAM2MAIR,CAM2MAIR,Mairie,87 Boulevard Louis Lesage 62149 Cambrin,50.51167866450831,2.741485502719505,,,0,,1
GRE2TONK,GRE2TONK,Tonkin,13 Boulevard de la Fosse 11 62160 Grenay,50.44520811379435,2.754129980493635,,,0,,0
HAR2REPU,HAR2REPU,Valmy,6 bis Rue de Valmy 62440 Harnes,50.4526593554464,2.9055586679167376,,,0,,0
LEN2MONU,LEN2MONU,I.U.T. Nord,242 Route de Béthune 62300 Lens,50.43885607189425,2.81104698623426,,,0,,0
AVI2EGL2,AVI2EGL2,Eglise,92 Boulevard Gabriel Péri 62210 Avion,50.41048019762627,2.830423183479453,,,0,,0
RUI2BH01,RUI2BH01,Village,65 Rue de Bethune 62620 Ruitz,50.47013313173264,2.593078628904023,,,0,,1
ANZ2STAD,ANZ2STAD,Stade,341 Rue Capitaine Coussette 62232 Annezin,50.53608052360279,2.619048483061254,,,0,,0
GOS1DERU,GOS1DERU,Deruelle,80 Rue Camille Deruelle 62199 Gosnay,50.51349114098127,2.5898668444795634,,,0,,0
BET1ROU2,BET1ROU2,Golf,292 Avenue du Maréchal Juin 62400 Béthune,50.525751278932894,2.6319802277209114,,,0,,0
LIE1CVIL,LIE1CVIL,Centre,129 Rue Jean-Baptiste Defernez 62800 Liévin,50.42080271665668,2.7773671361973884,,,0,,1
LEN24SEP,LEN24SEP,4 septembre,20 Avenue du 4 Septembre 62300 Lens,50.43245752478597,2.8318612041570086,,,0,,0
BET2ROU2,BET2ROU2,Golf,303 Avenue du Maréchal Juin 62400 Béthune,50.52574230772483,2.6319801749523086,,,0,,0
HAR1BH14,HAR1BH14,Mairie,7 bis Grand Place 62440 Harnes,50.44469189484429,2.903599664822824,,,0,,1
RUI1BH01,RUI1BH01,Village,65 Rue de Bethune 62620 Ruitz,50.47018713825295,2.592994557001893,,,0,,1
AVI1RJJR,AVI1RJJR,Rousseau,88 Rue Jean Jacques Rousseau 62210 Avion,50.402123094159386,2.8290214720995936,,,0,,0
LIE1ALLE,LIE1ALLE,Allende,7 Rue Salvador Allende 62800 Liévin,50.42763189276342,2.764350069392352,,,0,,0
GRE1BEUG,GRE1BEUG,Beugnet,68 Place du 8 Mai 62160 Grenay,50.44825318817898,2.750445582017548,,,0,,0
LIE2RPOI,LIE2RPOI,Tamaris,80 Rue Emile Zola 62800 Liévin,50.42372005234631,2.7642887070157345,,,0,,0
CUI1GARE,CUI1GARE,Gare,5 Place Pierre Semart 62149 Cuinchy,50.5218778754443,2.747337504257549,,,0,,0
BIL1GARE,BIL1GARE,Gare,1 Place Rene Lanoy 62420 Billy-Montigny,50.41568853984055,2.912147718373251,,,0,,0
BRU1CDHE,BRU1CDHE,Libération,2260 Avenue de la Liberation (La Bussière) 62700 Bruay-la-Buissière,50.4985943327704,2.582983915550708,,,0,,0
ESC2CEN2,ESC2CEN2,Centre,36 Chaussée Brunehaut 62690 Estrée-Cauchy,50.398817605345485,2.60699204784004,,,0,,1
CAR2R200,CAR2R200,Plachez,63 Rue Edouard Plachez 62220 Carvin,50.49069382949661,2.9555511399099985,,,0,,0
BEU1PREO,BEU1PREO,Préolan,786 Rue Aristide Briand 62660 Beuvry,50.52735068070885,2.7045691232169737,,,0,,0
CAR2CHGU,CAR2CHGU,Berlioz,1225 Rue de Buqueux 62220 Carvin,50.492403250258064,2.9739966992230285,,,0,,0
LIE1LHIR,LIE1LHIR,Hirsons,121 Rue Jules Guesde 62800 Liévin,50.43201750963873,2.78013444334834,,,0,,0
LIE2BLU2,LIE2BLU2,Blum,81 Avenue Jean Jaures 62800 Liévin,50.42432645220662,2.792847740066309,,,0,,0
LEN1NDLO,LEN1NDLO,Lorette,41 Rue Notre Dame de Lorette 62300 Lens,50.42511051743371,2.8178838271066504,,,0,,0
BUS2EGLI,BUS2EGLI,Eglise,,50.587556425909455,2.5179688143382344,,,0,,0
LLS1PRIM,LLS1PRIM,Les Primevères,,50.56753164997307,2.470344983943322,,,0,,0
BET1GMOU,BET1GMOU,Gros Moulin,300 Rue du Faubourg Saint Pry 62400 Béthune,50.51850611994016,2.6227770968779467,,,0,,0
OIG1CITE,OIG1CITE,Cité des Têtes,25 Rue Emile Basly 62590 Oignies,50.46946569689766,3.008696142944185,,,0,,0
HOU2DHAZ,HOU2DHAZ,Désiré Haze,146 Rue Désiré Haze 62150 Houdain,50.454515078771664,2.52738332577942,,,0,,0
BIB1CHAP,BIB1CHAP,Chapelle,229 Rue du Général de Gaulle 62138 Billy-Berclau,50.52332110114335,2.873837209912665,,,0,,0
ALL1JJAU,ALL1JJAU,Jean Jaurès,7 bis Rue Roger Salengro 62157 Allouagne,50.532239412106975,2.513546703750068,,,0,,0
CUI1BASL,CUI1BASL,Basly,20 Rue Emile Basly 62149 Cuinchy,50.52047389718281,2.7566558263324383,,,0,,0
AVI1MART,AVI1MART,Martel,207 Boulevard Henri Martel 62210 Avion,50.40427980519964,2.812223106789328,,,0,,0
VIM2BERG,VIM2BERG,Bergaigne,8 Rue Abel Bergaigne 62580 Vimy,50.372022419063846,2.802630050755035,,,0,,0
DRO1CRVA,DRO1CRVA,Route d'Arras,101 Route d’Arras 62320 Drocourt,50.39500768034829,2.92879778709663,,,0,,0
HAI1BH19,HAI1BH19,Quartier Fosse 7,98 Rue du Marechal Lyautey 62150 Houdain,50.463834848723366,2.555769751405459,,,0,,1
MAZ2STLO,MAZ2STLO,Saint-Lô,235 Route Nationale 62980 Vermelles,50.4720088649281,2.7485605953521293,,,0,,0
CAU1RDHA,CAU1RDHA,Rue d'en Haut,1 Rue d’En Haut 62150 Caucourt,50.397871000255705,2.569618751224781,,,0,,0
GAU1RDCH,GAU1RDCH,Rue du Château,356 Chaussée Brunehaut 62150 Gauchin-Légal,50.413356782643696,2.584041283619252,,,0,,1
AVI1LCO2,AVI1LCO2,Colonel Fabien,21 Rue Pierre Brossolette 62210 Avion,50.40969600724348,2.813102750156942,,,0,,0
FOQ2ACTI,FOQ2ACTI,Actipolis,2 Zone Artisanale Actipolis 62232 Fouquières-lès-Béthune,50.5156639373912,2.622015159709325,,,0,,1
BET2BH05,BET2BH05,Mont-Liébaut,11 Boulevard des Etats-Unis 62400 Béthune,50.51862706034698,2.6286033844471643,,,0,,1
BET2BH02,BET2BH02,André Malraux,437 Rue Jules Massenet 62400 Béthune,50.52066586648204,2.6531710121139827,,,0,,1
LOO1SUPE,LOO1SUPE,Supervielle,57 Rue Jules Supervielle 62750 Loos-en-Gohelle,50.45400375533066,2.774032514763128,,,0,,0
BRU1MJU2,BRU1MJU2,Maréchal Juin,447 Rue Roland Garros 62700 Bruay-la-Buissière,50.46964210244956,2.549286326115298,,,0,,0
SAY1GDOR,SAY1GDOR,Gerbes d'Or,1 q Route Nationale 62113 Sailly-Labourse,50.49772346771172,2.6995978561417595,,,0,,0
CAC1LVER,CAC1LVER,La Verrerie,39 Rue Anatole France 62470 Camblain-Châtelain,50.48205198388299,2.4714258406144447,,,0,,0
NOL2GAMB,NOL2GAMB,Gambetta,9 Rue Léon Gambetta 62221 Noyelles-sous-Lens,50.43324857704853,2.874321357885581,,,0,,0
HOU1POST,HOU1POST,Poste,11 Rue Henri Durant 62150 Houdain,50.45141558806483,2.5356626147102,,,0,,0
DIV2MOZA,DIV2MOZA,Mozart,11 Rue Mozart 62460 Divion,50.47386629874678,2.528328320269269,,,0,,1
BAR2MARI,BAR2MARI,Marina,247 Rue d’Houdain 62620 Barlin,50.453604071938265,2.5985313439926947,,,0,,0
LAP2VAMA,LAP2VAMA,Gare,416 Rue Victor Hugo 62122 Lapugnoy,50.50675724720424,2.515961209489378,,,0,,0
MON2BOUI,MON2BOUI,Collège Gagarine,51 Rue Suzanne Lannoy 62640 Montigny-en-Gohelle,50.43047712082692,2.9325869950245207,,,0,,0
FOQ1BH20,FOQ1BH20,Ferme Educative,5 Rue Mere Teresa 62232 Fouquières-lès-Béthune,50.51722283089668,2.6190409450254344,,,0,,1
DOV1CELO,DOV1CELO,Carrefour Eloi,6 bis Rue du 8 Mai 62138 Douvrin,50.50871350207629,2.838030177958492,,,0,,1
BET2CIVE,BET2CIVE,Cité Verquin,249 Rue de Verquin 62400 Béthune,50.51805147796684,2.643980012291265,,,0,,0
HOU2SJEA,HOU2SJEA,Saint-Jean,534 Rue Jean Jaures 62150 Houdain,50.45532109301944,2.5395709283421053,,,0,,0
DRO2CRVA,DRO2CRVA,Route d'Arras,101 Route d’Arras 62320 Drocourt,50.395080136139946,2.928658268231912,,,0,,0
ANZ24VEN,ANZ24VEN,4 Vents,491 Rue de Saint-Venant 62232 Annezin,50.542953322369215,2.6225644952392946,,,0,,0
AUC1SORR,AUC1SORR,Sorriaux,37 Rue Uriane Sorriaux 62260 Auchel,50.50389602402108,2.4648586100138976,,,0,,0
AUC1CHA1,AUC1CHA1,Georges Bernard,15 Quartier Saint Augustin 62260 Auchel,50.50065811981239,2.4804359139168737,,,0,,1
HIN2LPAC,HIN2LPAC,Le Pacault,496 Rue de Merville 62350 Mont-Bernanchon,50.59108464822793,2.632801884808205,,,0,,0
EVI2CIEM,EVI2CIEM,Employés,195 Rue Emile Basly 62141 Évin-Malmaison,50.44028029450007,3.0213721905074,,,0,,0
HAI1EGLI,HAI1EGLI,Mairie,24 Rue du 1er Mai 62940 Haillicourt,50.474997649297165,2.5834306875097384,,,0,,0
LOI2BH08,LOI2BH08,Gare 2,6 Rue Jules Warin 62218 Loison-sous-Lens,50.44018676682217,2.861273145739584,,,0,,1
HAI1RHAI,HAI1RHAI,Léon Blum,1053 Rue Léon Blum 62940 Haillicourt,50.47651366795504,2.5648934525651823,,,0,,0
NOE1LSKI,NOE1LSKI,Loisinord Ski,32 Rue du Muguet 62290 Nœux-les-Mines,50.47353132747756,2.6790377109527044,,,0,,0
BET1LROT,BET1LROT,La Rotonde,18 Rue du Maréchal Lyautey 62400 Béthune,50.52167847384953,2.63189998408703,,,0,,1
HER2BECL,HER2BECL,Champs d'Argent,141 Rue Emile Basly 62530 Hersin-Coupigny,50.44568729147615,2.6603849888933286,,,0,,1
HEN1R2VI,HEN1R2VI,Deux Villes,5 Boulevard Jean Moulin 62110 Hénin-Beaumont,50.42286398167733,2.9389995541560974,,,0,,1
VER2STAD,VER2STAD,Rue Guy Mollet,26 Domaine Saint Philippe 62113 Verquigneul,50.50567360820679,2.6638384546708016,,,0,,0
ELE2CIME,ELE2CIME,Bd Mendès France,Rue Gabriel Peri 62300 Éleu-dit-Leauwette,50.417832460648185,2.8181933442686207,,,0,,1
LIE2STDU,LIE2STDU,Stade Duflot,105 Rue Jules Ferry 62800 Liévin,50.42951353896002,2.74932214352178,,,0,,1
AUC1BRIQ,AUC1BRIQ,Val d'Enfer,331 Rue Raoul Briquet 62260 Auchel,50.516640196920406,2.460247672282696,,,0,,0
NOG2BAPI,NOG2BAPI,Rivage,67 Rue Gambetta 62950 Noyelles-Godault,50.423865767369726,3.0040132076071897,,,0,,0
FOU1VLFR,FOU1VLFR,Salle Mitterand,119 Rue Jean Jaures 62740 Fouquières-lès-Lens,50.425510323626845,2.9070913642899665,,,0,,0
AVI2VOLT,AVI2VOLT,Voltaire,184 Rue Aime Cesaire 62210 Avion,50.42097266237554,2.8428711821429054,,,0,,1
SAY2ODES,SAY2ODES,Désuert,27 Rue de Labourse 62113 Sailly-Labourse,50.50066023838336,2.6892661372991,,,0,,0
LAC1LROS,LAC1LROS,Les Rossignols,475 Rue de Houdain 62150 La Comté,50.43097463936853,2.507024553625837,,,0,,0
COC2CIVI,COC2CIVI,Artois,68 Rue Louis Blanc 62970 Courcelles-lès-Lens,50.41669773463102,3.024969033727569,,,0,,0
NOL1GAMB,NOL1GAMB,Gambetta,9 Rue Léon Gambetta 62221 Noyelles-sous-Lens,50.433267134368506,2.874181078408652,,,0,,0
AUM1DERE,AUM1DERE,Derez,44 Rue Casimir Beugnet 62138 Auchy-les-Mines,50.50886384724032,2.7824876093588795,,,0,,0
NOL110MA,NOL110MA,10 mars 1906,159 Rue du General de Gaulle 62221 Noyelles-sous-Lens,50.4198786915915,2.888657797052877,,,0,,1
CAC2LVER,CAC2LVER,La Verrerie,30 bis Rue Anatole France 62470 Camblain-Châtelain,50.482150673496825,2.471426104613112,,,0,,0
LIE2CORI,LIE2CORI,Riaumont,18 a Avenue de l’Entre 2 Monts 62800 Liévin,50.42007247761848,2.7882307974890788,,,0,,1
BUL1GAR2,BUL1GAR2,Gare,4 Rue Julien Hapiot 62160 Grenay,50.44808211002465,2.7342705453908365,,,0,,1
EST1MONU,EST1MONU,Monument,40 Rue Blanche Dupont 62880 Estevelles,50.47582103697112,2.906566262247946,,,0,,1
LOI1PLOI,LOI1PLOI,Pont de Loison,118 Route de Lille 62218 Loison-sous-Lens,50.44597518202407,2.86099634897785,,,0,,0
CUI2SALE,CUI2SALE,Salengro,1 Rue Roger Salengro 62149 Cuinchy,50.52164972910722,2.751177413725716,,,0,,0
HAI1KOEN,HAI1KOEN,Koenig,1 bis Rue du Général Koenig 62940 Haillicourt,50.47710233325069,2.5852828533293604,,,0,,0
HEN1STAD,HEN1STAD,Ballekens,475 Rue du Général de Gaulle 62110 Hénin-Beaumont,50.3877250215579,2.9695543909488564,,,0,,0
BEU1SQMA,BEU1SQMA,Square Martyrs,280 Rue Jacques Morat 62660 Beuvry,50.533465551924905,2.687286753451153,,,0,,0
ABL1NAMU,ABL1NAMU,Namur,140 Rue Marcel Lancino 62153 Ablain-Saint-Nazaire,50.394295985772416,2.70382094761562,,,0,,0
ANN2CONC,ANN2CONC,Concurrence,58 Route de Lille 62880 Annay,50.45233054335439,2.874890956594508,,,0,,0
LOZ1SFAM,LOZ1SFAM,Mairie,30 Rue Joseph Carlier 62540 Lozinghem,50.51739159897342,2.500746071966115,,,0,,1
MAZ1MAIR,MAZ1MAIR,Mairie,1 Avenue de Noyon 62670 Mazingarbe,50.469127751591806,2.7182145302906857,,,0,,0
LBS2MAIR,LBS2MAIR,Mairie,36 Rue Achille Larue 62113 Labourse,50.498907777944325,2.6807860994177632,,,0,,1
DOV2LPOM,DOV2LPOM,Route de Lens,305 Route de Lens 62138 Haisnes,50.5017923572742,2.809489545396458,,,0,,0
HEN1CCWA,HEN1CCWA,Wakefield,985 Avenue du Bord des Eaux 62110 Hénin-Beaumont,50.407165774422495,2.9720596499753,,,0,,1
ROU2SAFE,ROU2SAFE,Salle des Fêtes,171 Rue du Général de Gaulle 62320 Rouvroy,50.39980254564107,2.905269570623533,,,0,,1
AIX1RBOU,AIX1RBOU,Rue de Bouvigny,47 Rue de Bouvigny 62160 Aix-Noulette,50.42260327825738,2.704420833189177,,,0,,0
COU1CURI,COU1CURI,Curie,70 Rue Aristide Briand 62710 Courrières,50.45397183720918,2.940848216078341,,,0,,1
COU2PSTR,COU2PSTR,Strasbourg,39 Rue du General Leclerc 62710 Courrières,50.46119290634736,2.950268079972587,,,0,,1
HEN1LPER,HEN1LPER,La Perche,347 Rue Pasteur 62110 Hénin-Beaumont,50.41605133818173,2.946753960096275,,,0,,1
CAR2BH24,CAR2BH24,Rémy Callot,1 Rue de Provin 62220 Carvin,50.49344839804101,2.950127980023592,,,0,,1
DRO2VILL,DRO2VILL,Mairie,51 Route d’Arras 62320 Drocourt,50.392254262485054,2.92477903363822,,,0,,0
ESC1CEN2,ESC1CEN2,Centre,51 Chaussée Brunehaut 62690 Estrée-Cauchy,50.39891621298944,2.6070346910921285,,,0,,1
AUC2VAND,AUC2VAND,Vandervelde,67 Rue Vandervelde 62260 Auchel,50.50620506576736,2.4615725918223226,,,0,,0
REB2CCRO,REB2CCRO,La Croix,103 Avenue du Général de Gaulle 62150 Rebreuve-Ranchicourt,50.44207084837167,2.5543543084400784,,,0,,0
DOU1COMM,DOU1COMM,Jaurès,20 Rue Jean Jaurès 62119 Dourges,50.43417341051082,2.9859295710059075,,,0,,1
LIE1BH13,LIE1BH13,Louvre-Lens,1 Rue Christophe Oberkampf 62800 Liévin,50.42562892190773,2.797283913602437,,,0,,1
SAY1PDLE,SAY1PDLE,Mairie,27 Route Nationale 62113 Sailly-Labourse,50.50032447045,2.69680337326798,,,0,,0
RUI1CIME,RUI1CIME,Cimetière,17 Rue de Maisnil 62620 Ruitz,50.46505351830082,2.5850124418375784,,,0,,0
BET1GAR1,BET1GAR1,Gare - Quai 1,379 Avenue de Lens 62400 Béthune,50.521133233393634,2.6421413437029835,,,0,,1
LOO1GCAU,LOO1GCAU,Caullet,221 Rue Jules Supervielle 62750 Loos-en-Gohelle,50.451264568301816,2.761965492411662,,,0,,0
GRE1VERB,GRE1VERB,Verbrugge,33 Rue Casimir Beugnet 62160 Grenay,50.44984100581572,2.75584068877442,,,0,,1
BET1HDPO,BET1HDPO,Hôtel des Postes,62 Boulevard Victor Hugo 62400 Béthune,50.53140612390369,2.6418519819447583,,,0,,0
LAB1BARR,LAB1BARR,Barrière,406 Rue Paul Vaillant Couturier 62122 Labeuvrière,50.52406286291672,2.5601839107068027,,,0,,0
AUM2RD94,AUM2RD94,Planquette,61 Route Nationale 62138 Auchy-les-Mines,50.51836713356412,2.7843028427726884,,,0,,0
DIV2ZOLA,DIV2ZOLA,Pierre Bachelet,9 Rue Pierre Bachelet 62460 Divion,50.47087815586323,2.5039543545972496,,,0,,0
VEM1RVOL,VEM1RVOL,Rue Voltaire,14 Rue Voltaire 62980 Vermelles,50.48814466563886,2.7472866405136167,,,0,,1
BRU2IMPO,BRU2IMPO,C. des Impôts,648 Rue de la République 62700 Bruay-la-Buissière,50.47804307024574,2.5365974838474523,,,0,,0
BEU1BA02,BEU1BA02,Ballon,205 Route de Lens 62660 Beuvry,50.51396756795115,2.682043082701308,,,0,,1
CAU1CALV,CAU1CALV,Calvaire,26 Rue du Calvaire 62150 Caucourt,50.40280923179849,2.572659980309968,,,0,,0
BAR1RVHO,BAR1RVHO,Vieil Houdain,2 Rue du Vieil Houdain 62620 Barlin,50.44367901050582,2.607654635115565,,,0,,0
BEU1PDOM,BEU1PDOM,Pont Dominique,15 Rue Aristide Briand 62660 Beuvry,50.52354390873076,2.6964211368994704,,,0,,0
BUL2OFFE,BUL2OFFE,Offenbach,1 Rue Charles Gounod 62160 Bully-les-Mines,50.43902730419581,2.729197393296034,,,0,,1
VIO1FERR,VIO1FERR,Rétuy,122 Rue du Retuy 62138 Violaines,50.542228931747246,2.7922166238366266,,,0,,0
LIE2CIMN,LIE2CIMN,Cimetière Nord,23 Rue Pasteur 62800 Liévin,50.43148097648254,2.7617981323502123,,,0,,0
HAI2FAUV,HAI2FAUV,Fauvettes,22 Rue Diderot 62940 Haillicourt,50.48120431214887,2.5888043202215565,,,0,,0
BEU2HOPI,BEU2HOPI,Hôpital - Quai 4,7 Rue Delbecque 62660 Beuvry,50.5164973086944,2.669044875127349,,,0,,1
HEN2CHBI,HEN2CHBI,Leterme,1104 Boulevard des Freres Leterme 62110 Hénin-Beaumont,50.40757132274141,2.9303638531065737,,,0,,0
HAR2PALO,HAR2PALO,Espace Mimoun,43 Chemin de la 2e Voie 62440 Harnes,50.44509783011077,2.8812348398920413,,,0,,0
VEQ1CCOM,VEQ1CCOM,Centre Cial.,1560 Rue Nationale 62113 Verquigneul,50.50239150941074,2.6529292465652645,,,0,,0
ROU1BFO2,ROU1BFO2,Fosse 2,313 Boulevard Fosse 2 62320 Rouvroy,50.40091184722809,2.9001439166732963,,,0,,1
NOE2CCOM,NOE2CCOM,Centre Cial.,2 Rue du Lac 62290 Nœux-les-Mines,50.475614889823824,2.6782926971388075,,,0,,0
BET2PRIE,BET2PRIE,Prieuré,6 Rue Jean Mermoz 62400 Béthune,50.514235553642806,2.626692440639714,,,0,,0
WIN2BRIQ,WIN2BRIQ,Briquet,60 Rue Raoul Briquet 62410 Wingles,50.48843953168219,2.8462375102971804,,,0,,0
HAS28MAI,HAS28MAI,8 Mai 1945,1 Rue du 8 Mai 62138 Haisnes,50.508167749161146,2.7985619468714087,,,0,,0
MAR1DESC,MAR1DESC,Saint-Etienne,64 bis Boulevard Leon Gambetta 62540 Marles-les-Mines,50.50036842663288,2.4971458510846443,,,0,,1
SAY1LPRE,SAY1LPRE,Les Près,172 bis Route Nationale 62113 Sailly-Labourse,50.5048403753923,2.689492438548786,,,0,,0
BRU1PEU3,BRU1PEU3,Europe - Quai 4,7 Residence Artois 62700 Bruay-la-Buissière,50.48074148448991,2.548630207129245,,,0,,1
BRU1PEU2,BRU1PEU2,Europe - Quai 3,280 Rue Henri Cadot 62700 Bruay-la-Buissière,50.48093898423517,2.548560735097663,,,0,,1
LIE2LHIR,LIE2LHIR,Hirsons,123 Rue Jules Guesde 62800 Liévin,50.43206262364024,2.7800646045289605,,,0,,0
HEN2BH03,HEN2BH03,Jules Verne,368 Rue Jules Verne 62110 Hénin-Beaumont,50.41937131841614,2.971596003371391,,,0,,1
HEN2BH02,HEN2BH02,Sainte-Henriette,151 Voie des Equipages 62110 Hénin-Beaumont,50.42126831876335,2.965622936213053,,,0,,1
BRU1POLO,BRU1POLO,Pologne,129 Rue de la Pologne 62700 Bruay-la-Buissière,50.49172938077343,2.5281994916637363,,,0,,0
LEN1CIOI,LEN1CIOI,Cité des Oiseaux,41 a Rue Hector Laloux 62300 Lens,50.4401358355858,2.8390459986190417,,,0,,1
BRU1BBON,BRU1BBON,Basly Bone,1014 Rue de la Cavée 62700 Bruay-la-Buissière,50.491276252309255,2.531108965644288,,,0,,0
LEN2CIOI,LEN2CIOI,Cité des Oiseaux,41 a Rue Hector Laloux 62300 Lens,50.44004525508216,2.8392558379514385,,,0,,1
BRU1RDFL,BRU1RDFL,Les Fleuves,2 Rue de la Romanche 62700 Bruay-la-Buissière,50.48630191760033,2.564909758448605,,,0,,0
VEM1PHIL,VEM1PHIL,Philosophe,16 c Route Nationale 62980 Vermelles,50.48004453426625,2.7331174769318767,,,0,,0
LEF1GARE,LEF1GARE,Gare,1 Place Salvador Allende 62790 Leforest,50.4279324813816,3.0592981630104665,,,0,,1
VEQ2MAIR,VEQ2MAIR,Mairie,8 Rue Fernand Desmazieres 62131 Verquin,50.502765550414416,2.6397226367723423,,,0,,0
GRE2BEUG,GRE2BEUG,Beugnet,32 Rue Saint Pierre 62160 Grenay,50.44853864279937,2.75093975008675,,,0,,0
OIG2TORD,OIG2TORD,Tordoir,39 Rue du Tordoir 62590 Oignies,50.45947330495656,2.988126006310979,,,0,,0
VIO1CDLE,VIO1CDLE,Ch. de l'Etang,30 Rue du Marais 62138 Violaines,50.54472514801597,2.7639828395831247,,,0,,0
LIB2GAR2,LIB2GAR2,Gare - Quai 2,1 Rue Étienne Pruvost 62820 Libercourt,50.47998281437595,3.008386991065868,,,0,,1
BUR2FAUB,BUR2FAUB,Faubourg,172 Route Nationale 62151 Burbure,50.522062548319234,2.45653179904381,,,0,,1
LEN1PCYT,LEN1PCYT,Parc des Cytises,347 Route de la Bassee 62880 Vendin-le-Vieil,50.461886777852605,2.818320450234776,,,0,,1
BRU1CCOM,BRU1CCOM,Ccial de la Lawe,238 Rue Bizet 62700 Bruay-la-Buissière,50.4740601189719,2.536244241374364,,,0,,0
AVI2PINC,AVI2PINC,Pinchonvalles,278 Boulevard Henri Martel 62210 Avion,50.40070634972188,2.810476610022575,,,0,,0
LEN2ZIND,LEN2ZIND,La Croisette,2110 Route de la Bassee 62750 Loos-en-Gohelle,50.45476002793564,2.816734322614054,,,0,,1
BRU1RIMB,BRU1RIMB,De Vinci,83 Rue Léonard de Vinci 62700 Bruay-la-Buissière,50.48411531296456,2.526286227319668,,,0,,1
FOL1CHAP,FOL1CHAP,Chapelle,12 Rue du Général de Gaulle 62232 Fouquereuil,50.52136286629009,2.600911019878489,,,0,,0
HEN1PONC,HEN1PONC,Ponchelet,223 Rue Léon Blum 62110 Hénin-Beaumont,50.42778317145689,2.953076776841896,,,0,,0
HAR2BARB,HAR2BARB,Barbusse,37 Avenue Henri Barbusse 62440 Harnes,50.44768602513952,2.9022282650945868,,,0,,0
ROU2SGER,ROU2SGER,Eglise,44 Rue du Marechal Foch 62320 Rouvroy,50.39232819098182,2.905227184869145,,,0,,0
LEN2PSA1,LEN2PSA1,Briquet,26 Avenue Raoul Briquet 62300 Lens,50.43242848351158,2.8346142314247125,,,0,,0
MON1CACH,MON1CACH,Cachin,41 Route d’Harnes 62640 Montigny-en-Gohelle,50.43330653622516,2.9319602972188545,,,0,,0
HES2BH01,HES2BH01,4 Septembre 1944,2380 Avenue de la Liberation (La Bussière) 62700 Bruay-la-Buissière,50.49958761572724,2.5842688012689754,,,0,,1
LAP2PNEU,LAP2PNEU,Pont Neuf,2 Rue Jules Ferry 62122 Lapugnoy,50.52583273448862,2.558784436994011,,,0,,0
COU1MOUL,COU1MOUL,Rue Jean Jaurès,1 Residence du Moulin 62710 Courrières,50.45607205811464,2.94435893936646,,,0,,1
DRO1VILL,DRO1VILL,Mairie,50 Route d’Arras 62320 Drocourt,50.3927685636064,2.926062372732588,,,0,,0
HAI2HORT,HAI2HORT,Hortensias,751 Rue Emile Zola 62940 Haillicourt,50.468467928656565,2.568582152896978,,,0,,0
LEN1BZ05,LEN1BZ05,Béhal-J.Zay Q5,26 Rue John Neper 62300 Lens,50.443510354454645,2.823174437061419,,,0,,0
HOU2PLAC,HOU2PLAC,Marne,Place de la Marne 62150 Houdain,50.45607724610552,2.548765231550544,,,0,,1
HEN2PLAC,HEN2PLAC,Espace Lumière,109 Rue Elie Gruyelle 62110 Hénin-Beaumont,50.42057372839282,2.950348025851829,,,0,,0
CAR2ARAG,CAR2ARAG,Aragon,111 Rue Cyprien Quinet 62220 Carvin,50.491706054420725,2.976955414349559,,,0,,0
DIV1MAIR,DIV1MAIR,Mairie,14 Rue Louis Pasteur 62460 Divion,50.47281635218044,2.503763975128708,,,0,,1
HAR1CIME,HAR1CIME,Verdun,2 Rue du Chemin de Fer 62440 Harnes,50.44645643495252,2.886448621692296,,,0,,1
CAT2SNIC,CAT2SNIC,Castelain,36 Route Nationale 62260 Cauchy-à-la-Tour,50.510170121052255,2.442687704896106,,,0,,1
BIB1CDVI,BIB1CDVI,Cœur de Ville,14 Rue Francois Mitterrand 62138 Billy-Berclau,50.52304514583276,2.8712729748606547,,,0,,0
CAR2BH30,CAR2BH30,Notre Dame,15 Boulevard de la Justice 62220 Carvin,50.4897446512722,2.9425304945219524,,,0,,1
MER2DEPO,MER2DEPO,Flöha,12 Rue Roger Marechal 62680 Méricourt,50.4051871870322,2.8605851116376586,,,0,,0
REB1PLAC,REB1PLAC,Place,10 Route Nationale 62150 Rebreuve-Ranchicourt,50.4384194108534,2.55418397858942,,,0,,1
CAR1BH23,CAR1BH23,Carembault,124 Rue de Provin 62220 Carvin,50.49794953165227,2.9434313162875805,,,0,,1
FRE1SALE,FRE1SALE,Salengro,26 Rue Roger Salengro 62150 Fresnicourt-le-Dolmen,50.42714007127375,2.616934146407599,,,0,,1
BRU2MLEC,BRU2MLEC,Maréchal Leclerc,142 Rue de la République 62700 Bruay-la-Buissière,50.48006903332095,2.5430734243425315,,,0,,0
DIV1PCL2,DIV1PCL2,Polyclinique,22 Rue Baudelaire 62460 Divion,50.47739213908169,2.489817724627884,,,0,,1
BAR2RFOC,BAR2RFOC,Rue Foch,243 Rue de Fresnicourt 62620 Barlin,50.44767180184445,2.611652745859358,,,0,,0
HAR1SALI,HAR1SALI,Château Salins,28 Rue de Château Salins 62440 Harnes,50.44279784635791,2.8798891683718737,,,0,,0
HEN1LFON,HEN1LFON,Capelle,507 Rue Gustave Delory 62110 Hénin-Beaumont,50.401098807018094,2.938373832779752,,,0,,0
AIX2PNOU,AIX2PNOU,Noulette,16 Rue de la Chapelle 62160 Aix-Noulette,50.41515105506259,2.720739982909844,,,0,,0
COU1PBOU,COU1PBOU,Bouchez,70 Rue Pierre Bouchez 62710 Courrières,50.44967671069448,2.9403047201875148,,,0,,1
ANN2MDOR,ANN2MDOR,Mont Doré,1 Rue du Mont Dore 62880 Annay,50.457785459175895,2.889144625662528,,,0,,1
BRU1LEPM,BRU1LEPM,Mendès France,242 Rue des Ecoles 62700 Bruay-la-Buissière,50.48478532538071,2.533854079216469,,,0,,0
BRU1BH08,BRU1BH08,Flament,163 Avenue Augustin Flament 62700 Bruay-la-Buissière,50.47022202211309,2.556275540155982,,,0,,1
DOV2CIDM,DOV2CIDM,Cité du Maroc,76 Rue du 8 Mai 62138 Douvrin,50.509605581618494,2.843666753075216,,,0,,0
COC2ROGL,COC2ROGL,Cité Rogliano,87 Rue Raoul Briquet 62970 Courcelles-lès-Lens,50.42023343316205,3.010298973895536,,,0,,0
BRU1BH01,BRU1BH01,Voltaire,72 Rue Voltaire 62940 Haillicourt,50.47424231519523,2.575160280478181,,,0,,1
BRU1BH07,BRU1BH07,CCial Lenoir,1 Rue Jean Joseph Etienne Lenoir 62700 Bruay-la-Buissière,50.49493660722238,2.586102444249606,,,0,,1
HEN1TIL2,HEN1TIL2,Tilloy,133 Rue de Valmy 62110 Hénin-Beaumont,50.41414613620451,2.9509576460741345,,,0,,0
BEU2HLEF,BEU2HLEF,Lefebvre,470 Rue Jean Jaurès 62660 Beuvry,50.52555866528515,2.6852330821402672,,,0,,0
LIE2MOUS,LIE2MOUS,Mousseron,49 Rue Dutemple 62800 Liévin,50.43212247197108,2.755257490187145,,,0,,0
AIX2EPIN,AIX2EPIN,Epinette,11 Rue de Nantes 62160 Aix-Noulette,50.442225999941975,2.695319383839589,,,0,,0
ANZ1ROS1,ANZ1ROS1,Rue des Rosiers,753 Rue Capitaine Coussette 62232 Annezin,50.53894163231387,2.6154045073180168,,,0,,0
DIV1PISC,DIV1PISC,Piscine,47 bis Rue Louis Pasteur 62460 Divion,50.47095638134838,2.4991186429874594,,,0,,0
AUC2RIMB,AUC2RIMB,Rimbert,2 Rue du Four 62260 Auchel,50.51851760150734,2.457832001242787,,,0,,1
BRU2VELO,BRU2VELO,Vélodrome,326 Avenue de la Liberation (La Bussière) 62700 Bruay-la-Buissière,50.48934876773955,2.561956246776171,,,0,,0
ESC1HDE2,ESC1HDE2,Haut d'Estrée,14 Chaussée Brunehaut 62690 Estrée-Cauchy,50.39631387324678,2.611189773599759,,,0,,1
BRU14CHE,BRU14CHE,4 Chemins,777 b Rue Anatole France 62700 Bruay-la-Buissière,50.48635850848124,2.558469435513845,,,0,,0
LEN2PSA2,LEN2PSA2,Cantin Salengro,78 Rue René Lanoy 62300 Lens,50.43263875784907,2.833647031749632,,,0,,1
WIN2LPRO,WIN2LPRO,Buisine,34 Rue des Freres Buisine 62410 Wingles,50.49184672991923,2.8467502790606938,,,0,,0
NOE2DAUD,NOE2DAUD,Rue Pasteur,38 Rue Roger Salengro 62290 Nœux-les-Mines,50.475120990729806,2.661853994442853,,,0,,0
HAS1CIDE,HAS1CIDE,Cité Dejong,2 Route de Lens 62138 Douvrin,50.51636665101036,2.8059965560915123,,,0,,0
NOG1BAPI,NOG1BAPI,Rivage,71 Rue Gambetta 62950 Noyelles-Godault,50.42390963860741,3.0041963798460034,,,0,,1
HEN1PRUV,HEN1PRUV,Pruvot,361 Rue Leon Pruvot 62110 Hénin-Beaumont,50.42438351118338,2.958231887845966,,,0,,0
ANZ2LIBE,ANZ2LIBE,Liberté,373 Rue de Saint-Venant 62232 Annezin,50.54223293355587,2.623728876167723,,,0,,0
DIV2CDGR,DIV2CDGR,Croix de Grès,26 Rue des Frères Caron 62460 Divion,50.47066944856568,2.512121346827751,,,0,,0
WIN2VETI,WIN2VETI,Vert Tilleul,320 Rue Gabriel Péri 62410 Wingles,50.4869191063858,2.834071827813258,,,0,,1
NOY2EGLI,NOY2EGLI,Mairie,245 Rue des Résistants 62980 Noyelles-lès-Vermelles,50.48822920437381,2.723914543406775,,,0,,0
BEU1MAIR,BEU1MAIR,Mairie,2 Place Roger Salengro 62660 Beuvry,50.52229401431037,2.6817063423367853,,,0,,1
AUC2CLIN,AUC2CLIN,Dr Laënnec,61 Rue du Docteur Laennec 62260 Auchel,50.50137329646021,2.4747972584758107,,,0,,0
VEM2PLA2,VEM2PLA2,Mairie,5 Place de la République 62980 Vermelles,50.48811531570412,2.7453175766848097,,,0,,0
RUI2LHAY,RUI2LHAY,Les Hayes,87 Rue de Maisnil 62620 Ruitz,50.46022156191732,2.583020870767916,,,0,,0
BEU1TEUG,BEU1TEUG,Teugneville,702 Route de Lille 62660 Beuvry,50.5144903530858,2.6906858904788984,,,0,,0
CAR2PGAM,CAR2PGAM,Gambetta,68 Rue Florent Evrard 62220 Carvin,50.48604986232081,2.947646900612419,,,0,,0
HOU1AERO,HOU1AERO,Aéronautes,65 a Avenue des Aeronautes 62150 Houdain,50.46376458037802,2.549781562197924,,,0,,0
CAC1LCAL,CAC1LCAL,Le Calvaire,75 Rue Anatole France 62470 Camblain-Châtelain,50.48145396460596,2.468555799211722,,,0,,1
BRU2BH16,BRU2BH16,Bodelot,925 bis Rue Louis Dussart 62700 Bruay-la-Buissière,50.47650937014436,2.5573855854896688,,,0,,1
OIG1MAVE,OIG1MAVE,Justice,54 Avenue John Kennedy 62590 Oignies,50.45919058010703,2.997412838517603,,,0,,0
WIN1LYV2,WIN1LYV2,Métallurgie,8 Rue de la Metallurgie 62410 Wingles,50.48944773749398,2.8540529923315376,,,0,,0
DOV1LPOU,DOV1LPOU,Mairie,2 bis Rue des Poulbots 62138 Douvrin,50.50834913024985,2.828248725685406,,,0,,0
